,id_mutation,date_mutation,numero_disposition,nature_mutation,valeur_fonciere,adresse_numero,adresse_suffixe,adresse_nom_voie,adresse_code_voie,code_postal,code_commune,nom_commune,code_departement,ancien_code_commune,ancien_nom_commune,id_parcelle,ancien_id_parcelle,numero_volume,lot1_numero,lot1_surface_carrez,lot2_numero,lot2_surface_carrez,lot3_numero,lot3_surface_carrez,lot4_numero,lot4_surface_carrez,lot5_numero,lot5_surface_carrez,nombre_lots,code_type_local,type_local,surface_reelle_bati,nombre_pieces_principales,code_nature_culture,nature_culture,code_nature_culture_speciale,nature_culture_speciale,surface_terrain,longitude,latitude
0,2017-42,2017-01-05,1,Vente,128000.0,6.0,,RUE DES BLANCHISSERIES,501,1000.0,1053,Bourg-en-Bresse,1,,,01053000AC0434,,,,,,,,,,,,,0,,,,,S,sols,,,201.0,5.224638,46.212018
1,2017-81,2017-01-17,1,Vente,4600.0,,,EN ROSSET,B105,1250.0,1317,Ramasse,1,,,013170000C0725,,,,,,,,,,,,,0,,,,,T,terres,,,2920.0,5.366636,46.188322
2,2017-127,2017-01-19,1,Vente,207000.0,,,LE GUIDON,B139,1440.0,1451,Viriat,1,,,014510000H1913,,,,,,,,,,,,,0,,,,,P,prés,,,16.0,5.198219,46.234368
3,2017-172,2017-01-26,1,Vente,127000.0,5022.0,,LE BOURG,B012,1190.0,1102,Chevroux,1,,,011020000D0831,,,1,,,,,,,,,,1,2.0,Appartement,91.0,5.0,,,,,,4.948378,46.380907
4,2017-206,2017-02-01,1,Vente,150455.0,22.0,,AV ALPHONSE BAUDIN,170,1000.0,1053,Bourg-en-Bresse,1,,,01053000AM0021,,,119,,,,,,,,,,1,3.0,Dépendance,,0.0,,,,,,5.217039,46.200756
5,2017-245,2017-02-03,1,Vente,149000.0,,,LES BURELLES,B018,1290.0,1134,Crottet,1,,,011340000C2572,,,,,,,,,,,,,0,,,,,AG,terrains d'agrément,,,514.0,,
6,2017-276,2017-02-09,1,Vente,85050.0,,,CHAMP DE LA FAY,B006,1340.0,1387,Saint-Sulpice,1,,,013870000A0577,,,,,,,,,,,,,0,,,,,P,prés,,,14870.0,5.036258,46.324637
7,2017-326,2017-01-31,1,Vente,85000.0,25.0,,RUE MAL JOFFRE,2530,1000.0,1053,Bourg-en-Bresse,1,,,01053000AD0672,,,29,,31.0,,,,,,,,2,2.0,Appartement,41.0,2.0,,,,,,5.226747,46.205381
8,2017-366,2017-02-09,1,Vente,95000.0,,,EN LAGNAT,B041,1290.0,1136,Cruzilles-lès-Mépillat,1,,,01136000ZA0253,,,,,,,,,,,,,0,,,,,T,terres,,,1918.0,4.865522,46.223377
9,2017-416,2017-02-20,1,Vente,108000.0,,,SUR GRANDES BELLES VAVRES,B242,1340.0,1163,Foissiat,1,,,01163000WD0031,,,,,,,,,,,,,0,,,,,P,prés,,,3030.0,5.208741,46.3935
10,2017-435,2017-02-21,2,Vente,,,,LA PRAIRIE,B186,1190.0,1094,Chavannes-sur-Reyssouze,1,,,01094000ZB0089,,,,,,,,,,,,,0,,,,,P,prés,,,3340.0,5.000921,46.422677
11,2017-479,2017-02-24,2,Vente,5250.0,,,LA CROIX,B029,1380.0,1343,Saint-Cyr-sur-Menthon,1,,,01343000ZM0660,,,,,,,,,,,,,0,,,,,P,prés,,,616.0,4.969971,46.272991
12,2017-526,2017-03-02,1,Vente,139400.0,5541.0,,SOUS ROCHE,B286,1160.0,1273,Neuville-sur-Ain,1,,,01273000AC0119,,,,,,,,,,,,,0,1.0,Maison,88.0,4.0,AG,terrains d'agrément,,,1376.0,5.382554,46.080346
13,2017-579,2017-02-24,1,Vente,107000.0,7.0,,BD VOLTAIRE,3760,1000.0,1053,Bourg-en-Bresse,1,,,01053000AN0123,,,3,121.71,,,,,,,,,1,2.0,Appartement,101.0,4.0,,,,,,5.224086,46.20038
14,2017-627,2017-03-01,1,Vente,26595.9,,,GAS PEROU,B070,1250.0,1195,Jasseron,1,,,01195000ZB0113,,,,,,,,,,,,,0,,,,,T,terres,,,23857.0,5.29253,46.212544
15,2017-673,2017-03-09,1,Vente,390000.0,,,GRAND TANVOL,B130,1440.0,1451,Viriat,1,,,014510000E0884,,,,,,,,,,,,,0,,,,,AB,terrains a bâtir,,,10649.0,5.264053,46.238915
16,2017-713,2017-03-13,1,Vente,191000.0,5046.0,,AU BOURG,B017,1560.0,1124,Cormoz,1,,,01124000AA0158,,,,,,,,,,,,,0,2.0,Appartement,51.0,1.0,S,sols,,,192.0,5.230931,46.449303
17,2017-761,2017-04-04,1,Vente,219950.0,627.0,,RTE DE CHANTERENARD,29,1160.0,1151,Druillat,1,,,011510000V0714,,,,,,,,,,,,,0,1.0,Maison,137.0,4.0,S,sols,,,900.0,5.328386,46.076258
18,2017-802,2017-03-29,1,Vente,101584.0,,,VERS LE CHATEAU,B111,1160.0,1304,Pont-d'Ain,1,,,013040000C0439,,,,,,,,,,,,,0,,,,,P,prés,,,3767.0,5.339038,46.054082
19,2017-847,2017-04-06,1,Vente,700.0,,,PRAIRIE DES PIERRES,B073,1270.0,1445,Villemotier,1,,,01445000ZE0097,,,,,,,,,,,,,0,,,,,BT,taillis simples,,,1150.0,5.318394,46.35683
20,2017-885,2017-03-24,1,Vente,638019.9,,,CURTASSON,B082,1380.0,1025,Bâgé-Dommartin,1,1025.0,Bâgé-la-Ville,010250000D0606,,,,,,,,,,,,,0,,,,,T,terres,,,3080.0,4.95297,46.342584
21,2017-898,2017-04-10,3,Vente,42000.0,,,CURTIL DE LA GRANGE,B064,1190.0,1337,Saint-Bénigne,1,,,01337000ZN0143,,,,,,,,,,,,,0,,,,,AB,terrains a bâtir,,,426.0,4.975639,46.435569
22,2017-943,2017-04-04,1,Vente,90000.0,15.0,,CRS BOURGEOIS,120,1750.0,1370,Saint-Laurent-sur-Saône,1,,,013700000A0305,,,,,,,,,,,,,0,3.0,Dépendance,,0.0,S,sols,,,274.0,4.840736,46.30764
23,2017-985,2017-04-18,2,Vente,50816.7,,,GREZIAT,B045,1380.0,1343,Saint-Cyr-sur-Menthon,1,,,01343000ZB0013,,,,,,,,,,,,,0,,,,,T,terres,,,40000.0,4.945673,46.286874
24,2017-1026,2017-04-26,1,Vente,169000.0,6137.0,,RUE DE LA CATHERINETTE,45,1160.0,1304,Pont-d'Ain,1,,,01304000ZC0337,,,,,,,,,,,,,0,1.0,Maison,92.0,4.0,S,sols,,,855.0,5.33813,46.057467
25,2017-1069,2017-03-27,1,Vente,246600.0,,,VARAMBON,B058,1160.0,1430,Varambon,1,,,014300000C1231,,,,,,,,,,,,,0,,,,,J,jardins,,,985.0,5.315607,46.03842
26,2017-1086,2017-04-19,2,Vente,219000.0,,,LYONNIERE,B074,1370.0,1350,Saint-Étienne-du-Bois,1,,,013500000C1360,,,,,,,,,,,,,0,,,,,P,prés,,,1191.0,5.305325,46.268946
27,2017-1121,2017-04-27,1,Vente,,10.0,,RUE LOUIS BLERIOT,2330,1000.0,1053,Bourg-en-Bresse,1,,,01053000BM0427,,,,,,,,,,,,,0,3.0,Dépendance,,0.0,S,sols,,,2062.0,5.233279,46.211801
28,2017-1137,2017-04-21,1,Vente,180000.0,5223.0,,RUE DU DOC ROLLIN,65,1250.0,1072,Ceyzériat,1,,,01072000AI0382,,,,,,,,,,,,,0,3.0,Dépendance,,0.0,AG,terrains d'agrément,,,995.0,5.327851,46.181871
29,2017-1160,2017-04-21,1,Vente,60000.0,,,LA PLANTEE,B074,1160.0,1304,Pont-d'Ain,1,,,01304000ZC0395,,,,,,,,,,,,,0,,,,,AB,terrains a bâtir,,,610.0,5.337033,46.057857
30,2017-1199,2017-04-27,1,Vente,1622843.8,7.0,,RUE BIZET,490,1000.0,1053,Bourg-en-Bresse,1,,,01053000AL0046,,,,,,,,,,,,,0,2.0,Appartement,75.0,3.0,S,sols,,,890.0,5.221446,46.194648
31,2017-1217,2017-04-28,1,Vente,171220.0,358.0,,AV DE TREVOUX,476,1000.0,1344,Saint-Denis-lès-Bourg,1,,,01344000AH0625,,,,,,,,,,,,,0,,,,,AG,terrains d'agrément,,,107.0,5.202723,46.201499
32,2017-1263,2017-05-04,1,Vente,266500.0,,,FENIOUX,B066,1310.0,1115,Confrançon,1,,,01115000AA0289,,,,,,,,,,,,,0,,,,,S,sols,,,146.0,5.057225,46.257274
33,2017-1292,2017-05-02,1,Vente,40000.0,,,AUX TAVERNIERES,B137,1250.0,1095,Nivigne et Suran,1,,,01095000ZC0151,,,,,,,,,,,,,0,,,,,BT,taillis simples,,,166.0,5.423266,46.283605
34,2017-1342,2017-05-22,1,Vente,114980.0,41.0,,BD DE BROU,620,1000.0,1053,Bourg-en-Bresse,1,,,01053000BC0456,,,403,,428.0,,,,,,,,2,2.0,Appartement,73.0,3.0,,,,,,5.23093,46.203716
35,2017-1368,2017-06-09,1,Vente,64000.0,9.0,,BD JULES FERRY,2120,1000.0,1053,Bourg-en-Bresse,1,,,01053000AM0167,,,,,,,,,,,,,0,2.0,Appartement,41.0,1.0,S,sols,,,249.0,5.217415,46.196749
36,2017-1402,2017-05-17,1,Vente,74000.0,5094.0,,THOL,B299,1160.0,1273,Neuville-sur-Ain,1,,,012730000E0761,,,,,,,,,,,,,0,1.0,Maison,90.0,4.0,S,sols,,,192.0,5.369142,46.068384
37,2017-1436,2017-06-12,1,Vente,122300.0,,,CHE DES PRES,66,1290.0,1306,Pont-de-Veyle,1,,,013060000A1551,,,1,,,,,,,,,,1,3.0,Dépendance,,0.0,,,,,,4.888208,46.260198
38,2017-1487,2017-06-12,1,Vente,97624.0,1.0,,RUE GUICHARD,1800,1000.0,1053,Bourg-en-Bresse,1,,,01053000AD0239,,,10,,,,,,,,,,1,2.0,Appartement,55.0,2.0,,,,,,5.22656,46.205304
39,2017-1524,2017-06-09,1,Vente,351500.0,,,LES PIES,B106,1250.0,1195,Jasseron,1,,,01195000AE0237,,,,,,,,,,,,,0,,,,,AG,terrains d'agrément,,,662.0,5.325098,46.210078
40,2017-1571,2017-06-21,1,Vente,12850.0,,,AU MOLLARD,B299,1340.0,1163,Foissiat,1,,,01163000WB0140,,,,,,,,,,,,,0,,,,,P,prés,,,13761.0,5.177503,46.381313
41,2017-1616,2017-06-23,1,Vente,143000.0,6.0,,RUE GABRIEL VICAIRE,80,1160.0,1304,Pont-d'Ain,1,,,01304000AL0046,,,,,,,,,,,,,0,1.0,Maison,84.0,4.0,S,sols,,,1742.0,5.336811,46.044914
42,2017-1666,2017-06-28,1,Vente,1500.0,,,EN GROTANT,B132,1250.0,1447,Villereversure,1,,,014470000C0280,,,,,,,,,,,,,0,,,,,BT,taillis simples,,,1410.0,5.405269,46.188131
43,2017-1702,2017-06-22,2,Vente,113000.0,,,BALVAY,B002,1340.0,1130,Bresse Vallons,1,1130.0,Cras-sur-Reyssouze,011300000A1127,,,,,,,,,,,,,0,,,,,P,prés,,,121.0,5.196662,46.310812
44,2017-1755,2017-06-30,1,Vente,1150000.0,,,BUIZONNE,B046,1570.0,1159,Feillens,1,,,01159000ZH0380,,,,,,,,,,,,,0,,,,,S,sols,,,1919.0,4.885912,46.326116
45,2017-1800,2017-06-30,2,Vente,1200.0,,,EN PAVIS,B184,1250.0,1125,Corveissiat,1,,,01125000ZE0058,,,,,,,,,,,,,0,,,,,AB,terrains a bâtir,,,6581.0,5.50472,46.261328
46,2017-1830,2017-06-09,1,Vente,204350.0,1659.0,,AV DE TREVOUX,476,1000.0,1344,Saint-Denis-lès-Bourg,1,,,013440000B0386,,,,,,,,,,,,,0,1.0,Maison,100.0,6.0,J,jardins,,,1007.0,5.185612,46.199202
47,2017-1874,2017-07-05,1,Vente,137000.0,1244.0,,CHE DE LA CROIX,108,1960.0,1289,Péronnas,1,,,01289000AV0222,,,,,,,,,,,,,0,2.0,Appartement,65.0,3.0,S,sols,,,638.0,5.196113,46.185513
48,2017-1923,2017-07-04,1,Vente,1000.0,,,MARILLAT,B059,1380.0,1343,Saint-Cyr-sur-Menthon,1,,,01343000ZO0093,,,,,,,,,,,,,0,,,,,J,jardins,,,175.0,4.965503,46.255844
49,2017-1962,2017-07-24,1,Vente,270000.0,7.0,,PL DE L EGLISE,92,1440.0,1451,Viriat,1,,,01451000AE0246,,,3,109.29,,,,,,,,,1,1.0,Maison,62.0,3.0,,,,,,5.215733,46.254244
50,2017-1998,2017-07-06,1,Vente,100000.0,,,AU BOURG,B008,1340.0,1236,Marsonnas,1,,,01236000AN0032,,,,,,,,,,,,,0,,,,,S,sols,,,166.0,5.070544,46.341281
51,2017-2046,2017-07-19,1,Vente,87950.0,24.0,,AV DE JASSERON,1950,1000.0,1053,Bourg-en-Bresse,1,,,01053000BZ0467,,,4,48.35,,,,,,,,,1,2.0,Appartement,55.0,2.0,,,,,,5.247745,46.211013
52,2017-2078,2017-07-11,1,Vente,138000.0,,,AU PEROUX,B133,1190.0,1016,Arbigny,1,,,01016000AB0210,,,,,,,,,,,,,0,,,,,T,terres,,,178.0,4.960879,46.470037
53,2017-2112,2017-07-13,1,Vente,240000.0,62.0,,RUE DE LA CHAMBIERE,750,1000.0,1053,Bourg-en-Bresse,1,,,01053000AB0342,,,116,,,,,,,,,,1,3.0,Dépendance,,0.0,,,,,,5.218733,46.209633
54,2017-2146,2017-07-31,1,Vente,17550.0,,,LES PERNAYES,B102,1310.0,1301,Polliat,1,,,013010000A1382,,,,,,,,,,,,,0,,,,,BS,taillis sous futaie,,,2660.0,5.156073,46.270493
55,2017-2185,2017-07-27,1,Vente,192500.0,5317.0,,EN FIN,B058,1370.0,1241,Meillonnas,1,,,01241000ZE0265,,,,,,,,,,,,,0,1.0,Maison,92.0,5.0,S,sols,,,788.0,5.348997,46.239748
56,2017-2236,2017-08-17,1,Vente,75300.0,3.0,,IMP MOLIERE,2680,1000.0,1053,Bourg-en-Bresse,1,,,01053000AP0077,,,35,,,,,,,,,,1,3.0,Dépendance,,0.0,,,,,,5.231197,46.190262
57,2017-2285,2017-08-31,1,Vente,189000.0,21.0,,RUE LITTRE,2320,1000.0,1053,Bourg-en-Bresse,1,,,01053000BC0127,,,,,,,,,,,,,0,1.0,Maison,145.0,5.0,S,sols,,,324.0,5.22969,46.203109
58,2017-2325,2017-08-10,1,Vente,34000.0,,,BOUCHE RATTE,B026,1560.0,1364,Saint-Jean-sur-Reyssouze,1,,,013640000B0251,,,,,,,,,,,,,0,,,,,J,jardins,,,503.0,5.089084,46.379803
59,2017-2361,2017-08-31,1,Vente,82000.0,,,LES BLANCS D EN HAUT,B018,1851.0,1232,Marboz,1,,,01232000ZE0160,,,,,,,,,,,,,0,,,,,S,sols,,,5.0,5.248372,46.308282
60,2017-2404,2017-09-07,1,Vente,350000.0,,,LES CRUISES,B052,1190.0,1352,Saint-Étienne-sur-Reyssouze,1,,,013520000C0110,,,,,,,,,,,,,0,,,,,P,prés,,,4836.0,5.024683,46.396638
61,2017-2433,2017-09-12,2,Vente,400.0,,,LA MADELEINE NORD EST,B178,1750.0,1320,Replonges,1,,,013200000D4451,,,,,,,,,,,,,0,,,,,J,jardins,,,47.0,,
62,2017-2489,2017-09-13,1,Vente,7940.0,,,LA GRANDE CHINTRE,B067,1370.0,1350,Saint-Étienne-du-Bois,1,,,013500000E0533,,,,,,,,,,,,,0,,,,,P,prés,,,3160.0,5.269358,46.269945
63,2017-2533,2017-09-08,2,Vente,203000.0,5404.0,,LES GAMBY,B040,1380.0,1343,Saint-Cyr-sur-Menthon,1,,,01343000ZN0129,,,,,,,,,,,,,0,1.0,Maison,118.0,4.0,S,sols,,,1450.0,4.95987,46.262088
64,2017-2581,2017-09-07,1,Vente,214600.0,31.0,,RUE HAROUN TAZIEFF,4090,1000.0,1053,Bourg-en-Bresse,1,,,01053000CN0432,,,1,90.0,,,,,,,,,1,1.0,Maison,90.0,4.0,,,,,,5.26598,46.194134
65,2017-2625,2017-09-18,1,Vente,70000.0,26.0,,CHE DES ECOLIERS,16,1340.0,1024,Attignat,1,,,01024000AB0156,,,,,,,,,,,,,0,2.0,Appartement,80.0,1.0,S,sols,,,354.0,5.163299,46.289249
66,2017-2670,2017-10-04,1,Vente,70000.0,,,AUX ECLUSES,B091,1380.0,1025,Bâgé-Dommartin,1,1025.0,Bâgé-la-Ville,010250000E1214,,,,,,,,,,,,,0,,,,,AB,terrains a bâtir,,,3455.0,,
67,2017-2717,2017-09-27,1,Vente,45000.0,,,MONCOIN,B022,1540.0,1291,Perrex,1,,,012910000B1250,,,,,,,,,,,,,0,,,,,S,sols,,,47.0,4.977083,46.238224
68,2017-2762,2017-09-29,2,Echange,11300.0,,,VERNAY NORD,B134,1190.0,1323,Reyssouze,1,,,01323000ZK0294,,,,,,,,,,,,,0,,,,,T,terres,,,371.0,4.913782,46.423774
69,2017-2799,2017-10-09,1,Vente,95000.0,2691.0,,RTE DE VESCOURS,150,1560.0,1388,Saint-Trivier-de-Courtes,1,,,013880000A0549,,,,,,,,,,,,,0,1.0,Maison,75.0,4.0,S,sols,,,1255.0,5.045831,46.466651
70,2017-2841,2017-10-11,1,Vente,600.0,,,LES GRANDS QUARTS,B096,1160.0,1314,Priay,1,,,013140000E0320,,,,,,,,,,,,,0,,,,,VI,vignes,,,564.0,5.291701,46.006197
71,2017-2888,2017-10-16,1,Vente,143390.0,5210.0,,LES HAUTINS,B061,1290.0,1203,Laiz,1,,,012030000C0745,,,,,,,,,,,,,0,1.0,Maison,120.0,4.0,S,sols,,,62.0,4.909158,46.247183
72,2017-2932,2017-10-25,1,Vente,75000.0,,,CROIX COLIN NORD,B082,1750.0,1320,Replonges,1,,,013200000C2818,,,,,,,,,,,,,0,,,,,P,prés,,,898.0,,
73,2017-2981,2017-10-27,1,Vente,1720.33,,,AUX COMBES,B047,1250.0,1184,Hautecourt-Romanèche,1,,,011840000A0506,,,,,,,,,,,,,0,,,,,P,prés,,,1420.0,5.405712,46.167673
74,2017-3027,2017-10-26,1,Vente,270000.0,,,LA CURTILLERE,B014,1340.0,1266,Montrevel-en-Bresse,1,,,012660000C0072,,,,,,,,,,,,,0,,,,,T,terres,,,4740.0,5.09269,46.31154
75,2017-3060,2017-10-20,1,Vente,190322.55,80.0,A,RUE DE LA MARE,121,1310.0,1301,Polliat,1,,,01301000AE0176,,,68,,,,,,,,,,1,3.0,Dépendance,,0.0,,,,,,5.13047,46.248338
76,2017-3093,2017-10-27,1,Vente,120000.0,,,CHAMP CATIN,B020,1270.0,1147,Domsure,1,,,01147000ZE0213,,,,,,,,,,,,,0,,,,,S,sols,,,510.0,5.291608,46.444219
77,2017-3141,2017-11-15,1,Vente,402000.0,155.0,,AU COLOMBIER,B044,1250.0,1422,Tossiat,1,,,014220000D1326,,,,,,,,,,,,,0,3.0,Dépendance,,0.0,S,sols,,,500.0,5.308954,46.14093
78,2017-3186,2017-11-20,2,Vente,13105.4,,,LA CULEE,B040,1370.0,1038,Bény,1,,,010380000B0421,,,,,,,,,,,,,0,,,,,P,prés,,,2315.0,5.299229,46.316011
79,2017-3225,2017-11-06,1,Vente,86000.0,20.0,,RUE VICTOR BASCH,3710,1000.0,1053,Bourg-en-Bresse,1,,,01053000AD0405,,,4,70.58,,,,,,,,,1,4.0,Local industriel. commercial ou assimilé,52.0,0.0,,,,,,5.2269,46.204211
80,2017-3268,2017-11-23,3,Vente,72500.0,,,LES BLANCS D EN HAUT,B018,1851.0,1232,Marboz,1,,,01232000ZE0167,,,,,,,,,,,,,0,,,,,P,prés,,,41.0,5.249254,46.309596
81,2017-3310,2017-11-22,1,Vente,42000.0,,,BRACANIERE,B005,1340.0,1387,Saint-Sulpice,1,,,013870000A0858,,,,,,,,,,,,,0,,,,,AB,terrains a bâtir,,,1689.0,5.0442,46.318472
82,2017-3350,2017-12-01,1,Vente en l'état futur d'achèvement,209000.0,82.0,B,BD DE BROU,620,1000.0,1053,Bourg-en-Bresse,1,,,01053000AZ0341,,,50,,,,,,,,,,1,3.0,Dépendance,,0.0,,,,,,5.231568,46.201409
83,2017-3386,2017-11-24,1,Vente,2011732.0,2.0,,RUE DU MOULIN DE BROU,2740,1000.0,1053,Bourg-en-Bresse,1,,,01053000AY0073,,,24,,7.0,46.06,,,,,,,2,2.0,Appartement,47.0,2.0,,,,,,5.239428,46.199215
84,2017-3414,2017-11-30,1,Vente,25000.0,,,COTES DU CHENE,B030,1160.0,1304,Pont-d'Ain,1,,,01304000AC0121,,,,,,,,,,,,,0,,,,,J,jardins,,,487.0,5.336081,46.052154
85,2017-3447,2017-11-30,1,Vente,163600.0,135.0,,RTE DE TOSSIAT,2,1250.0,1321,Revonnas,1,,,013210000B0059,,,,,,,,,,,,,0,1.0,Maison,85.0,4.0,S,sols,,,266.0,5.329788,46.161535
86,2017-3490,2017-12-19,1,Vente,50000.0,,,SAINT JULIEN,B064,1560.0,1367,Saint-Julien-sur-Reyssouze,1,,,013670000A0750,,,,,,,,,,,,,0,,,,,S,sols,,,7.0,5.109499,46.402496
87,2017-3519,2017-12-29,1,Vente,6209.76,,,LES VIGNES,B218,1560.0,1139,Curciat-Dongalon,1,,,011390000A0271,,,,,,,,,,,,,0,,,,,T,terres,,,7869.0,5.152698,46.491605
88,2017-3548,2017-12-18,1,Vente,85000.0,1.0,,RUE DE L EST,1430,1000.0,1053,Bourg-en-Bresse,1,,,01053000AX0056,,,62,,68.0,61.76,,,,,,,2,2.0,Appartement,62.0,3.0,,,,,,5.240438,46.193446
89,2017-3570,2017-12-19,1,Vente,,,,AU FORNAY,B053,1290.0,1179,Grièges,1,,,01179000ZL0119,,,,,,,,,,,,,0,,,,,T,terres,,,1840.0,4.829814,46.256278
90,2017-3603,2017-12-14,1,Vente,437000.0,,,VERCHERE D ADILLON,B313,1570.0,1159,Feillens,1,,,01159000AI0160,,,,,,,,,,,,,0,,,,,L,landes,,,63.0,4.901756,46.329265
91,2017-3630,2017-12-28,1,Vente,3000.0,,,LA BAISSE,B002,1560.0,1367,Saint-Julien-sur-Reyssouze,1,,,013670000B0152,,,,,,,,,,,,,0,,,,,S,sols,,,1734.0,5.095439,46.408731
92,2017-3672,2017-12-26,1,Vente,78000.0,,,CHARMEIL,B035,1340.0,1024,Attignat,1,,,01024000AD0216,,,,,,,,,,,,,0,,,,,AB,terrains a bâtir,,,771.0,5.160741,46.281056
93,2017-3711,2017-12-27,1,Vente,103000.0,41.0,,BD DE BROU,620,1000.0,1053,Bourg-en-Bresse,1,,,01053000BC0456,,,417,,436.0,72.5,,,,,,,2,2.0,Appartement,73.0,3.0,,,,,,5.23093,46.203716
94,2017-3762,2017-12-20,1,Vente,247000.0,132.0,,GRANDE RUE,60,1190.0,1323,Reyssouze,1,,,01323000AN0005,,,,,,,,,,,,,0,1.0,Maison,166.0,6.0,S,sols,,,980.0,4.922721,46.440675
95,2017-3798,2017-01-09,1,Vente,1790.75,,,L ECOTTET,B074,1640.0,1199,Jujurieux,1,,,011990000B0804,,,,,,,,,,,,,0,,,,,BT,taillis simples,,,256.0,5.398053,46.049943
96,2017-3847,2017-01-03,1,Vente,240000.0,,,SERGY DESSUS,B055,1630.0,1401,Sergy,1,,,014010000B1664,,,,,,,,,,,,,0,,,,,S,sols,,,31.0,5.99284,46.256171
97,2017-3901,2017-01-20,1,Vente,20000.0,160.0,,RUE DES PLANTAGES,82,1170.0,1399,Ségny,1,,,01399000AK0179,,,14,,,,,,,,,,1,3.0,Dépendance,,0.0,,,,,,6.075153,46.293912
98,2017-3948,2017-01-30,1,Vente,8000.0,,,LES GRANDS BROTTEAUX,B113,1300.0,1338,Groslée-Saint-Benoit,1,,,013380000B0778,,,,,,,,,,,,,0,,,,,BP,peupleraies,,,2793.0,5.601526,45.673302
99,2017-3986,2017-01-11,1,Vente,248000.0,,,SUR CREDETTE,B017,1170.0,1071,Cessy,1,,,01071000AE0162,,,,,,,,,,,,,0,,,,,AB,terrains a bâtir,,,601.0,6.082448,46.320169
100,2017-4026,2017-01-16,1,Vente,700.0,,,SOUS LA SERVE,B070,1260.0,1036,Valromey-sur-Séran,1,1442.0,Vieu,010364420B0057,014420000B0057,,,,,,,,,,,,0,,,,,T,terres,,,825.0,5.675979,45.895727
101,2017-4064,2017-02-01,1,Vente,210000.0,790.0,,RTE DES LAVOIRS,185,1300.0,1286,Parves et Nattages,1,,,012862710B0249,,,,,,,,,,,,,0,1.0,Maison,84.0,5.0,S,sols,,,1361.0,5.756198,45.735601
102,2017-4079,2017-01-30,1,Vente,27878.0,,,A CHAMPOUSSIER,B008,1150.0,1390,Saint-Vulbas,1,,,013900000C1033,,,,,,,,,,,,,0,,,,,S,sols,,,380.0,,
103,2017-4120,2017-01-17,1,Vente,312000.0,,,GRAND CHAMP,B087,1640.0,1199,Jujurieux,1,,,01199000AH0104,,,,,,,,,,,,,0,,,,,VI,vignes,,,1741.0,5.403492,46.036188
104,2017-4167,2017-01-27,1,Vente,890000.0,257.0,,RUE DE PRE BAILLY,650,1170.0,1173,Gex,1,,,01173000AL0104,,,,,,,,,,,,,0,1.0,Maison,257.0,6.0,S,sols,,,1000.0,6.056884,46.326409
105,2017-4208,2017-01-27,1,Vente,120000.0,,,LE VILLAGE,B289,1460.0,1267,Nurieux-Volognat,1,,,01267455AB0075,,,,,,,,,,,,,0,,,,,J,jardins,,,807.0,5.515369,46.174893
106,2017-4254,2017-01-21,1,Vente,295000.0,493.0,,RTE DE LA FONTAINE,41,1280.0,1313,Prévessin-Moëns,1,,,01313000AN0119,,,1343,76.15,,,,,,,,,1,2.0,Appartement,76.0,4.0,,,,,,6.075898,46.251481
107,2017-4292,2017-02-06,1,Vente,25000.0,,,CEYZERIEU VILLAGE,B037,1350.0,1073,Ceyzérieu,1,,,010730000C0267,,,,,,,,,,,,,0,,,,,S,sols,,,82.0,5.725988,45.836658
108,2017-4326,2017-01-31,1,Vente,150000.0,39.0,,RUE DE LA REPUBLIQUE,490,1200.0,1033,Valserhône,1,1033.0,Bellegarde-sur-Valserine,01033000AL0262,,,,,,,,,,,,,0,4.0,Local industriel. commercial ou assimilé,45.0,0.0,S,sols,,,351.0,5.82634,46.107286
109,2017-4370,2017-02-27,1,Vente,246950.0,11.0,B,RUE DE LA BATISSE,161,1500.0,1004,Ambérieu-en-Bugey,1,,,01004000BR0353,,,,,,,,,,,,,0,1.0,Maison,122.0,4.0,S,sols,,,675.0,5.360015,45.955652
110,2017-4416,2017-02-08,1,Vente,10133.0,,,LE VILLAGE,B136,1230.0,1421,Torcieu,1,,,01421000AC0315,,,,,,,,,,,,,0,,,,,S,sols,,,51.0,5.39469,45.922832
111,2017-4467,2017-01-26,1,Vente,126000.0,,,MARIGNIEU,B029,1300.0,1234,Marignieu,1,,,012340000A1157,,,,,,,,,,,,,0,,,,,S,sols,,,4.0,5.720323,45.796837
112,2017-4515,2017-02-17,1,Vente,40000.0,44.0,,RUE DOCTEUR MERCIER,300,1130.0,1269,Nantua,1,,,01269000AB0416,,,63,,,,,,,,,,1,3.0,Dépendance,,0.0,,,,,,5.604428,46.152904
113,2017-4547,2017-03-03,1,Vente,4430.0,,,ARBOREAZ,B002,1300.0,1006,Ambléon,1,,,010060000A0169,,,,,,,,,,,,,0,,,,,T,terres,,,1860.0,5.608028,45.752708
114,2017-4586,2017-02-18,1,Vente,700.0,,,SOUS LA SERVE,B070,1260.0,1036,Valromey-sur-Séran,1,1442.0,Vieu,010364420B0048,014420000B0048,,,,,,,,,,,,0,,,,,L,landes,,,1670.0,5.67512,45.897288
115,2017-4634,2017-02-27,1,Vente,780000.0,740.0,,RTE DES ALPES,7,1280.0,1313,Prévessin-Moëns,1,,,01313251BH0157,,,,,,,,,,,,,0,1.0,Maison,150.0,6.0,S,sols,,,785.0,6.094722,46.259964
116,2017-4681,2017-02-17,1,Vente,72000.0,,,VERS LE PONT,B304,1150.0,1202,Lagnieu,1,,,01202000AB0794,,,,,,,,,,,,,0,,,,,AB,terrains a bâtir,,,504.0,5.348017,45.898178
117,2017-4729,2017-03-06,1,Vente,126000.0,17.0,,CHE DU BUISSON,21,1450.0,1331,Saint-Alban,1,,,013310000A0205,,,,,,,,,,,,,0,1.0,Maison,138.0,5.0,S,sols,,,289.0,5.471437,46.105052
118,2017-4763,2017-03-06,1,Vente,8000.0,,,SOUS LA HAIE,B079,1430.0,1191,Izenave,1,,,011910000A0106,,,,,,,,,,,,,0,,,,,BR,futaies résineuses,,,4240.0,5.507737,46.04664
119,2017-4807,2017-03-08,1,Vente,139075.0,2.0,,RTE DE LANCRANS,75,1200.0,1033,Valserhône,1,1205.0,Lancrans,010332050E1395,012050000E1395,,15,30.43,,,,,,,,,1,2.0,Appartement,30.0,1.0,,,,,,5.82592,46.115347
120,2017-4840,2017-03-09,3,Vente,500000.0,,,CHALLEX,B011,1630.0,1078,Challex,1,,,010780000B1898,,,,,,,,,,,,,0,,,,,AB,terrains a bâtir,,,540.0,,
121,2017-4873,2017-03-13,1,Vente,8939.95,,,LA BOISSONNA,B006,1100.0,1011,Apremont,1,,,010110000B0092,,,,,,,,,,,,,0,,,,,T,terres,,,1084.0,5.665944,46.201889
122,2017-4904,2017-03-10,1,Vente,12570.35,,,SOUS CHARLET,B126,1110.0,1311,Prémillieu,1,,,013110000D0648,,,,,,,,,,,,,0,,,,,T,terres,,,640.0,5.541024,45.877262
123,2017-4918,2017-03-16,1,Vente,300.0,,,CHAMBON,B009,1350.0,1039,Béon,1,,,010390000A1869,,,,,,,,,,,,,0,,,,,BT,taillis simples,,,283.0,5.742673,45.862298
124,2017-4973,2017-03-22,1,Vente,1600.0,,,GRANGE BURU,B047,1430.0,1191,Izenave,1,,,011910000A0064,,,,,,,,,,,,,0,,,,,BR,futaies résineuses,,,1190.0,5.508935,46.051758
125,2017-5003,2017-03-30,1,Vente,570000.0,,,LES BUGNONS,B004,1170.0,1071,Cessy,1,,,01071000AI0289,,,,,,,,,,,,,0,,,,,S,sols,,,74.0,6.093893,46.320315
126,2017-5034,2017-03-29,1,Vente,271000.0,,,EN BEL AIR,B006,1350.0,1138,Culoz,1,,,011380000E0873,,,,,,,,,,,,,0,,,,,L,landes,,,94.0,5.781631,45.855054
127,2017-5078,2017-03-14,1,Vente,160000.0,39.0,,RUE DIDEROT,430,1100.0,1283,Oyonnax,1,,,01283000AI0684,,,,,,,,,,,,,0,,,,,L,landes,,,27.0,5.659062,46.251867
128,2017-5100,2017-03-27,1,Vente,713975.5,,,SOUS LA CHAUME,B250,1500.0,1004,Ambérieu-en-Bugey,1,,,01004000AT1030,,,,,,,,,,,,,0,,,,,T,terres,,,4.0,5.353812,45.973075
129,2017-5128,2017-03-24,1,Vente,134500.0,11.0,,RUE PASTEUR,135,1500.0,1345,Saint-Denis-en-Bugey,1,,,01345000AI0246,,,,,,,,,,,,,0,2.0,Appartement,40.0,1.0,S,sols,,,55.0,5.328229,45.950979
130,2017-5162,2017-03-29,1,Vente,2350.0,,,CHANTEMERLE,B041,1110.0,1185,Plateau d'Hauteville,1,1417.0,Thézillieu,01185417WY0023,01417000WY0023,,,,,,,,,,,,0,,,,,BS,taillis sous futaie,,,1101.0,5.610001,45.898168
131,2017-5192,2017-03-28,1,Vente,161000.0,5650.0,,IMP DES JARDINIERS,45,1230.0,1416,Tenay,1,,,01416000AC0057,,,,,,,,,,,,,0,1.0,Maison,80.0,3.0,J,jardins,,,307.0,5.506615,45.923375
132,2017-5239,2017-03-21,1,Vente,362.0,,,SUR MOLARETS,B076,1590.0,1148,Dortan,1,,,01148000ZC0378,,,,,,,,,,,,,0,,,,,S,sols,,,26.0,5.650209,46.315918
133,2017-5253,2017-03-31,1,Vente,30000.0,,,LA COTE,B061,1450.0,1214,Leyssard,1,,,01214000ZC0003,,,,,,,,,,,,,0,,,,,P,prés,,,20225.0,5.472781,46.158714
134,2017-5275,2017-03-29,1,Vente,235000.0,226.0,,RUE DE L'ECOLE,17,1280.0,1313,Prévessin-Moëns,1,,,01313000AP0067,,,327,44.18,,,,,,,,,1,2.0,Appartement,44.0,2.0,,,,,,6.071966,46.249432
135,2017-5322,2017-04-06,2,Vente,56500.0,,,AUX TRAVERSSAGNES,B177,1640.0,1199,Jujurieux,1,,,011990000B2319,,,,,,,,,,,,,0,,,,,P,prés,,,685.0,5.412872,46.048234
136,2017-5365,2017-03-22,1,Vente,2400.0,,,EN PLAMONT,B083,1420.0,1082,Chanay,1,,,010820000B0520,,,,,,,,,,,,,0,,,,,BT,taillis simples,,,6928.0,5.768546,46.011835
137,2017-5400,2017-03-31,1,Vente,85000.0,,,JOUVET,B048,1500.0,1379,Saint-Maurice-de-Rémens,1,,,01379000AH0046,,,,,,,,,,,,,0,,,,,T,terres,,,944.0,5.271682,45.958742
138,2017-5435,2017-04-13,1,Vente,521230.0,6197.0,,CHE DE TIR - MIR,711,1220.0,1143,Divonne-les-Bains,1,,,01143000AT0240,,,,,,,,,,,,,0,,,,,S,sols,,,3436.0,6.121771,46.345712
139,2017-5467,2017-04-18,1,Vente,54000.0,,,SUR LA COTE,B019,1130.0,1174,Giron,1,,,011740000B1174,,,,,,,,,,,,,0,,,,,P,prés,,,1815.0,5.775251,46.222682
140,2017-5493,2017-04-11,1,Vente,1000.0,,,CHANDURAZ,B011,1350.0,1039,Béon,1,,,010390000A0634,,,,,,,,,,,,,0,,,,,L,landes,,,550.0,5.750463,45.866642
141,2017-5494,2017-04-12,1,Vente en l'état futur d'achèvement,344200.0,,,AUX PUGINS,B035,1280.0,1313,Prévessin-Moëns,1,,,01313000AP0151,,,76,,,,,,,,,,1,3.0,Dépendance,,0.0,,,,,,6.074204,46.248213
142,2017-5531,2017-04-21,1,Vente,311000.0,64.0,,CHE DE DESSOUS LES MURS,60,1170.0,1071,Cessy,1,,,01071000AT0108,,,179,,187.0,,,,,,,,2,2.0,Appartement,69.0,3.0,,,,,,6.07272,46.314644
143,2017-5566,2017-04-13,1,Vente,380000.0,338.0,,GRAND' RUE,46,1550.0,1109,Collonges,1,,,011090000F0068,,,2,,3.0,,,,,,,,2,2.0,Appartement,140.0,6.0,,,,,,5.904015,46.141276
144,2017-5605,2017-04-20,1,Vente en l'état futur d'achèvement,4216851.0,,,LA TUILERIE,B165,1220.0,1143,Divonne-les-Bains,1,,,01143000AP0360,,,116,,,,,,,,,,1,,,,,,,,,,6.145639,46.34855
145,2017-5625,2017-05-05,1,Vente,83000.0,88.0,,RUE ST JEAN,700,1300.0,1034,Belley,1,,,01034000AK0261,,,,,,,,,,,,,0,1.0,Maison,145.0,5.0,S,sols,,,247.0,5.686789,45.756431
146,2017-5666,2017-04-21,1,Vente,1500.0,,,PETIT MACHUILLIN,B049,1260.0,1036,Valromey-sur-Séran,1,1442.0,Vieu,010364420A0702,014420000A0702,,,,,,,,,,,,0,,,,,BT,taillis simples,,,1340.0,5.701981,45.897517
147,2017-5703,2017-05-02,1,Vente,257000.0,194.0,,AV DE LA REPUBLIQUE,212,1630.0,1354,Saint-Genis-Pouilly,1,,,01354000BC0042,,,126,,139.0,70.03,,,,,,,2,2.0,Appartement,67.0,3.0,,,,,,6.023615,46.243027
148,2017-5751,2017-04-28,1,Vente,492466.0,460.0,,CHE DE MAGNY,52,1280.0,1313,Prévessin-Moëns,1,,,01313251BI0112,,,1,100.9,,,,,,,,,1,1.0,Maison,104.0,5.0,,,,,,6.091391,46.2538
149,2017-5761,2017-04-05,1,Vente,90000.0,,,EVRON,B033,1100.0,1237,Martignat,1,,,012370000C1691,,,,,,,,,,,,,0,,,,,S,sols,,,4.0,5.62471,46.21822
150,2017-5799,2017-05-19,1,Vente,90000.0,,,LE TUILIER,B134,1500.0,1149,Douvres,1,,,011490000A1114,,,,,,,,,,,,,0,,,,,S,sols,,,215.0,5.37041,45.984544
151,2017-5834,2017-04-27,1,Vente,5717343.0,3.0,,IMP DU PEGAN,171,1210.0,1160,Ferney-Voltaire,1,,,01160000AE0432,,,145,,,,,,,,,,1,3.0,Dépendance,,0.0,,,,,,6.103781,46.25429
152,2017-5834,2017-04-27,1,Vente,5717343.0,335.0,,RUE DES PRALETS,112,1210.0,1281,Ornex,1,,,01281000AE0185,,,,,,,,,,,,,0,2.0,Appartement,73.0,4.0,S,sols,,,950.0,6.084165,46.283614
153,2017-5846,2017-05-09,1,Vente,785000.0,,,SUR GROSSE,B001,1210.0,1160,Ferney-Voltaire,1,,,01160000AN0037,,,,,,,,,,,,,0,,,,,BT,taillis simples,,,1390.0,6.123049,46.252966
154,2017-5899,2017-05-09,1,Vente,127000.0,,,LA CULAZ SONGIEU,B344,1260.0,1187,Haut Valromey,1,,,011874090D0136,,,,,,,,,,,,,0,,,,,P,prés,,,1737.0,5.700789,45.973416
155,2017-5935,2017-05-12,1,Vente en l'état futur d'achèvement,374000.0,,,LES HAUTINS,B027,1630.0,1354,Saint-Genis-Pouilly,1,,,01354000AD0493,,,,,,,,,,,,,0,,,,,AB,terrains a bâtir,,,259.0,6.044025,46.263093
156,2017-5979,2017-05-30,1,Vente,230000.0,,,VERS JACQUENET,B047,1300.0,1193,Izieu,1,,,011930000B0646,,,,,,,,,,,,,0,,,,,L,landes,PATUR,Pâture plantée,860.0,5.632674,45.646645
157,2017-6013,2017-05-15,1,Vente,25560.08,,,SOUS LA PIECE,B038,1260.0,1330,Ruffieu,1,,,"1,33E+067",,,,,,,,,,,,,0,,,,,P,prés,,,10400.0,5.669178,45.992653
158,2017-6052,2017-05-30,1,Vente,20000.0,,,LES COMBES,B032,1300.0,1110,Colomieu,1,,,011100000A0114,,,,,,,,,,,,,0,,,,,BT,taillis simples,,,3198.0,5.626947,45.744776
159,2017-6081,2017-05-12,1,Vente,1.0,,,EN BUISET,B006,1150.0,1390,Saint-Vulbas,1,,,01390000AA0039,,,,,,,,,,,,,0,,,,,S,sols,,,9835.0,5.276477,45.843297
160,2017-6127,2017-05-17,1,Vente,300000.0,9.0,,RUE RENAN,1270,1100.0,1283,Oyonnax,1,,,01283000AE0226,,,,,,,,,,,,,0,2.0,Appartement,62.0,2.0,S,sols,,,183.0,5.659042,46.257413
161,2017-6163,2017-05-24,1,Vente,176000.0,36.0,B,AV DU GEN SARRAIL,320,1500.0,1004,Ambérieu-en-Bugey,1,,,01004000BT0206,,,,,,,,,,,,,0,2.0,Appartement,70.0,2.0,S,sols,,,1198.0,5.339344,45.955337
162,2017-6206,2017-05-19,1,Vente,164600.0,1116.0,,RTE DE POSAFOL,342,1150.0,1202,Lagnieu,1,,,"1,202E+089",,,,,,,,,,,,,0,3.0,Dépendance,,0.0,VI,vignes,,,462.0,5.333886,45.891324
163,2017-6233,2017-06-09,1,Vente,155000.0,155.0,,RUE DU TIOCAN,224,1630.0,1354,Saint-Genis-Pouilly,1,,,01354000AO0006,,,10,37.0,,,,,,,,,1,4.0,Local industriel. commercial ou assimilé,37.0,0.0,,,,,,6.026199,46.253825
164,2017-6261,2017-06-09,1,Vente,13816.0,,,GOLET RAVAUD,B073,1110.0,1060,Brénod,1,,,010600000B0093,,,,,,,,,,,,,0,,,,,BR,futaies résineuses,SAPIN,Sapins ou sapinière,8070.0,5.630715,46.096494
165,2017-6299,2017-06-09,1,Vente,402370.0,1394.0,,RUE JEAN DE GINGINS,465,1220.0,1143,Divonne-les-Bains,1,,,011430000H1242,,,24,,,,,,,,,,1,3.0,Dépendance,,0.0,,,,,,6.150213,46.370306
166,2017-6345,2017-05-22,1,Vente,2000.0,,,L ABERGEMENT DE VAREY,B001,1640.0,1002,L'Abergement-de-Varey,1,,,01002000AD0207,,,,,,,,,,,,,0,,,,,P,prés,,,3082.0,5.424398,46.007488
167,2017-6383,2017-06-09,1,Vente,15000.0,,,AUX PARAILLES,B058,1450.0,1068,Cerdon,1,,,010680000D2005,,,,,,,,,,,,,0,,,,,VI,vignes,,,630.0,5.454598,46.066359
168,2017-6437,2017-06-09,1,Vente en l'état futur d'achèvement,626220.0,,,LES COMBES,B016,1280.0,1313,Prévessin-Moëns,1,,,01313000AB0288,,,,,,,,,,,,,0,,,,,AB,terrains a bâtir,,,27.0,,
169,2017-6477,2017-06-27,1,Vente,482500.0,,,LES COMBES,B017,1200.0,1189,Injoux-Génissiat,1,,,011890000C0226,,,,,,,,,,,,,0,,,,,L,landes,,,2280.0,5.790373,46.053084
170,2017-6496,2017-06-05,2,Vente,100000.0,,,LE CARILLON,B013,1360.0,1224,Loyettes,1,,,012240000A3068,,,,,,,,,,,,,0,,,,,S,sols,,,7.0,5.203956,45.778395
171,2017-6542,2017-06-15,1,Vente,142000.0,9.0,B,RTE DE GENEVE,46,1130.0,1274,Les Neyrolles,1,,,01274000AC0342,,,,,,,,,,,,,0,1.0,Maison,85.0,3.0,S,sols,,,761.0,5.627687,46.139694
172,2017-6590,2017-06-19,1,Vente,133000.0,36.0,,RUE DES APOTRES,100,1500.0,1004,Ambérieu-en-Bugey,1,,,01004000AW0333,,,23,,,,,,,,,,1,3.0,Dépendance,,0.0,,,,,,5.355961,45.967049
173,2017-6634,2017-06-19,1,Vente,89000.0,5117.0,,RTE DU BARRAGE,13,1420.0,1118,Corbonod,1,,,01118000AN0446,,,,,,,,,,,,,0,1.0,Maison,90.0,4.0,S,sols,,,264.0,5.831539,45.962679
174,2017-6677,2017-06-30,1,Vente,135000.0,,,LE VILLAGE,B048,1450.0,1242,Mérignat,1,,,012420000A1349,,,,,,,,,,,,,0,,,,,P,prés,,,1.0,5.438347,46.069624
175,2017-6714,2017-06-26,1,Vente,37500.0,,,CARRE BAUDIN,B040,1500.0,1004,Ambérieu-en-Bugey,1,,,01004000AX0145,,,,,,,,,,,,,0,,,,,S,sols,,,104.0,5.36528,45.964482
176,2017-6747,2017-07-04,2,Vente,2100000.0,,,CHAMP DE LA CROIX,B054,1500.0,1004,Ambérieu-en-Bugey,1,,,01004000AM0391,,,,,,,,,,,,,0,,,,,S,sols,,,2686.0,5.345037,45.964797
177,2017-6790,2017-07-05,1,Vente,213000.0,,,LA SAUME,B153,1300.0,1454,Virignin,1,,,014540000A2248,,,,,,,,,,,,,0,,,,,S,sols,,,474.0,5.712091,45.723027
178,2017-6831,2017-07-07,1,Vente,32480.0,,,LES BRUVES,B008,1100.0,1011,Apremont,1,,,01011000AC0155,,,,,,,,,,,,,0,,,,,T,terres,,,1624.0,,
179,2017-6869,2017-07-12,2,Vente,1000.0,,,AU CLOSEL,B045,1640.0,1199,Jujurieux,1,,,011990000D2855,,,,,,,,,,,,,0,,,,,T,terres,,,1381.0,5.431174,46.030216
180,2017-6917,2017-07-05,1,Vente,410000.0,9002.0,,LA BIOLIERE,B004,1360.0,1224,Loyettes,1,,,012240000D0123,,,,,,,,,,,,,0,1.0,Maison,159.0,8.0,S,sols,,,1663.0,5.217501,45.794704
181,2017-6960,2017-06-30,1,Vente,35000.0,18.0,,CHE DE LA FORET,43,1100.0,1171,Géovreisset,1,,,011710000A1755,,,,,,,,,,,,,0,,,,,PA,pâtures,PATUR,Pâture plantée,132.0,5.613563,46.253929
182,2017-7008,2017-07-03,2,Vente,135000.0,,,GRAND BRENS,B056,1300.0,1061,Brens,1,,,010610000B1288,,,,,,,,,,,,,0,,,,,S,sols,,,77.0,5.694467,45.72007
183,2017-7046,2017-07-13,1,Vente,392000.0,91.0,,RUE DE CHAPEAUROUGE,23,1280.0,1313,Prévessin-Moëns,1,,,01313000AN0189,,,145,86.74,22.0,,93.0,,,,,,3,2.0,Appartement,87.0,4.0,,,,,,6.079057,46.252899
184,2017-7091,2017-07-13,1,Vente,9795.0,,,LES GRESILLIERES,B048,1350.0,1133,Cressin-Rochefort,1,,,011330000C0092,,,,,,,,,,,,,0,,,,,VI,vignes,,,2780.0,5.757123,45.788545
185,2017-7126,2017-07-06,1,Vente,98000.0,3.0,,RUE DOCTEUR MERCIER,300,1130.0,1269,Nantua,1,,,01269000AB0825,,,10,,,,,,,,,,1,3.0,Dépendance,,0.0,,,,,,5.604632,46.155908
186,2017-7167,2017-07-17,2,Echange,800.0,,,CLOS D ARVIERE,B055,1420.0,1118,Corbonod,1,,,01118000AK0136,,,,,,,,,,,,,0,,,,,P,prés,,,340.0,5.819618,45.97532
187,2017-7176,2017-07-12,1,Vente en l'état futur d'achèvement,232816.03,,,LA LAYE,B068,1100.0,1014,Arbent,1,,,01014000AI0496,,,,,,,,,,,,,0,,,,,P,prés,,,10.0,5.679604,46.284031
188,2017-7224,2017-07-18,1,Vente,400000.0,18.0,,AV DE L EUROPE,119,1230.0,1384,Saint-Rambert-en-Bugey,1,,,01384000AD0321,,,235,68.01,,,,,,,,,1,2.0,Appartement,68.0,3.0,,,,,,5.434906,45.945613
189,2017-7254,2017-07-20,1,Vente,125000.0,20.0,,RTE DE GENEVE,360,1130.0,1269,Nantua,1,,,01269000AD0065,,,,,,,,,,,,,0,2.0,Appartement,54.0,4.0,S,sols,,,2935.0,5.611518,46.146259
190,2017-7296,2017-07-24,1,Vente en l'état futur d'achèvement,248000.0,,,LOUYE,B003,1210.0,1160,Ferney-Voltaire,1,,,01160000AI0047,,,39,,,,,,,,,,1,,,,,,,,,,6.114458,46.259625
191,2017-7341,2017-07-19,1,Vente,271000.0,,,A MABOEZ OUEST,B178,1420.0,1118,Corbonod,1,,,01118000AW0145,,,,,,,,,,,,,0,,,,,AB,terrains a bâtir,,,924.0,5.815207,45.964049
192,2017-7372,2017-08-04,1,Vente,85000.0,,,A LA COTE,B150,1230.0,1384,Saint-Rambert-en-Bugey,1,,,01384000ZC0166,,,,,,,,,,,,,0,,,,,J,jardins,,,864.0,5.44855,45.960269
193,2017-7408,2017-07-19,1,Vente en l'état futur d'achèvement,200000.0,,,CESSY VILLAGE,B007,1170.0,1071,Cessy,1,,,01071000AT0119,,,126,,,,,,,,,,1,,,,,,,,,,6.067405,46.314906
194,2017-7463,2017-07-31,1,Vente,404200.0,,,RUE DE LAUSANNE,490,1220.0,1143,Divonne-les-Bains,1,,,01143000AK0474,,,89,,,,,,,,,,1,3.0,Dépendance,,0.0,,,,,,6.145545,46.359852
195,2017-7492,2017-08-01,1,Vente,64000.0,109.0,,RUE DES PEROUSES,197,1350.0,1138,Culoz,1,,,01138000AO0392,,,15,20.6,,,,,,,,,1,2.0,Appartement,30.0,1.0,,,,,,5.78246,45.846338
196,2017-7528,2017-07-28,1,Vente,59900.0,,,PETITE FIN,B088,1100.0,1014,Arbent,1,,,01014000AI0519,,,,,,,,,,,,,0,,,,,T,terres,,,2.0,5.67969,46.287263
197,2017-7568,2017-08-02,1,Vente,75000.0,92.0,,RUE DU COTEILLON,105,1150.0,1202,Lagnieu,1,,,012020000E1841,,,,,,,,,,,,,0,3.0,Dépendance,,0.0,S,sols,,,1297.0,,
198,2017-7590,2017-08-02,2,Vente,110000.0,,,VERS LE PONT,B304,1150.0,1202,Lagnieu,1,,,01202000AB0617,,,,,,,,,,,,,0,,,,,S,sols,,,14.0,5.347759,45.898527
199,2017-7628,2017-08-04,1,Vente,158500.0,16.0,,CHE DE LA PLAINE,75,1150.0,1396,Sault-Brénaz,1,,,01396000AC0424,,,,,,,,,,,,,0,1.0,Maison,118.0,5.0,S,sols,,,278.0,5.394331,45.866198
200,2017-7673,2017-08-24,1,Vente,5250.0,,,L HOPITAL,B050,1150.0,1099,Chazey-sur-Ain,1,,,010990000D1363,,,,,,,,,,,,,0,,,,,S,sols,,,79.0,5.262955,45.880471
201,2017-7717,2017-08-03,1,Vente,519400.0,63.0,,CHE DES COLVERTS,24,1280.0,1313,Prévessin-Moëns,1,,,01313000AM0137,,,23,108.62,,,,,,,,,1,1.0,Maison,110.0,4.0,,,,,,6.084616,46.249395
202,2017-7753,2017-09-04,1,Vente,175000.0,28.0,B,RUE DU DEPOT,260,1500.0,1004,Ambérieu-en-Bugey,1,,,01004000BR0514,,,,,,,,,,,,,0,1.0,Maison,72.0,5.0,S,sols,,,690.0,5.353249,45.956336
203,2017-7802,2017-08-11,1,Vente,275000.0,459.0,,RUE FRANCOIS ESTIER,80,1170.0,1153,Échenevex,1,,,01153000AB0083,,,45,,,,,,,,,,1,3.0,Dépendance,,0.0,,,,,,6.037393,46.310207
204,2017-7842,2017-08-29,1,Vente en l'état futur d'achèvement,540000.0,,,LA FERME,B019,1630.0,1354,Saint-Genis-Pouilly,1,,,01354000BD0324,,,19,133.5,,,,,,,,,1,2.0,Appartement,133.0,4.0,,,,,,6.017518,46.246605
205,2017-7888,2017-09-01,1,Vente,214000.0,61.0,,RUE DE LA REPUBLIQUE,490,1200.0,1033,Valserhône,1,1033.0,Bellegarde-sur-Valserine,01033000AL0504,,,211,,,,,,,,,,1,3.0,Dépendance,,0.0,,,,,,5.823557,46.106309
206,2017-7930,2017-09-12,1,Vente,38600.0,,,MARCILLIEUX,B028,1150.0,1390,Saint-Vulbas,1,,,013900000D1259,,,,,,,,,,,,,0,,,,,S,sols,,,3.0,5.275875,45.809601
207,2017-7965,2017-08-30,1,Vente,315000.0,,,LES COMBES,B013,1630.0,1354,Saint-Genis-Pouilly,1,,,01354000AC0384,,,,,,,,,,,,,0,,,,,AB,terrains a bâtir,,,292.0,6.038535,46.263972
208,2017-7995,2017-08-25,1,Vente,913000.0,3.0,B,PL DE LA FONTAINE,110,1630.0,1354,Saint-Genis-Pouilly,1,,,01354000BC0110,,,2,,6.0,,,,,,,,2,2.0,Appartement,22.0,1.0,,,,,,6.020557,46.24355
209,2017-8012,2017-08-28,1,Vente,,9001.0,,LA SAVOIE,553,1110.0,1185,Plateau d'Hauteville,1,1185.0,Hauteville-Lompnes,011850000H0082,,,,,,,,,,,,,0,2.0,Appartement,12.0,1.0,S,sols,,,17271.0,5.594878,45.997467
210,2017-8054,2017-09-01,1,Vente,3000.0,31.0,B,GR GRANDE RUE,145,1210.0,1160,Ferney-Voltaire,1,,,01160000AE0357,,,41,,,,,,,,,,1,3.0,Dépendance,,0.0,,,,,,6.108921,46.256953
211,2017-8094,2017-09-05,1,Vente,114467.0,12.0,,RUE PASTEUR,450,1200.0,1033,Valserhône,1,1033.0,Bellegarde-sur-Valserine,01033000AO0057,,,11,48.52,18.0,,8.0,,,,,,3,2.0,Appartement,48.0,2.0,,,,,,5.832772,46.107355
212,2017-8142,2017-09-04,3,Echange,1.0,,,LE CARRE,B009,1110.0,1080,Champdor-Corcelles,1,,,010800000D0258,,,,,,,,,,,,,0,,,,,S,sols,,,173.0,5.596207,46.022441
213,2017-8184,2017-09-05,1,Vente,207270.0,214.0,,CHEM DES COQUELICOTS,33,1170.0,1103,Chevry,1,,,011030000A0879,,,38,,,,,,,,,,1,3.0,Dépendance,,0.0,,,,,,6.033179,46.280275
214,2017-8235,2017-09-13,1,Vente,499800.0,167.0,,RTE DE CHANVIERE,45,1630.0,1288,Péron,1,,,012880000B1252,,,,,,,,,,,,,0,1.0,Maison,140.0,6.0,S,sols,,,960.0,5.928112,46.205789
215,2017-8280,2017-09-18,1,Vente,280000.0,,,ECORANS,B063,1550.0,1109,Collonges,1,,,011090000B0853,,,,,,,,,,,,,0,,,,,J,jardins,,,23.0,5.900781,46.155604
216,2017-8324,2017-09-13,1,Vente en l'état futur d'achèvement,259000.0,,,PRES DES MARAIS,B050,1630.0,1354,Saint-Genis-Pouilly,1,,,01354000BD0433,,,26,,,,,,,,,,1,,,,,,,,,,6.023517,46.248209
217,2017-8363,2017-09-29,1,Vente,18083000.0,260.0,,RUE DES BOIS,25,1210.0,1281,Ornex,1,,,01281000AC0022,,,141,,142.0,,43.0,,,,,,3,2.0,Appartement,92.0,4.0,,,,,,,
218,2017-8395,2017-10-06,2,Vente,268000.0,,,AUX AREINES,B005,1500.0,1004,Ambérieu-en-Bugey,1,,,01004000BH0683,,,,,,,,,,,,,0,,,,,S,sols,,,566.0,5.36615,45.952987
219,2017-8427,2017-09-21,1,Vente en l'état futur d'achèvement,365000.0,,,PRES DES MARAIS,B050,1630.0,1354,Saint-Genis-Pouilly,1,,,01354000BD0433,,,142,,,,,,,,,,1,,,,,,,,,,6.023517,46.248209
220,2017-8464,2017-10-06,1,Vente,33000.0,5442.0,,COMBE MASSON,B030,1230.0,1421,Torcieu,1,,,014210000C0307,,,,,,,,,,,,,0,3.0,Dépendance,,0.0,S,sols,,,337.0,5.390076,45.920824
221,2017-8490,2017-09-11,1,Vente en l'état futur d'achèvement,448000.0,,,LA TUILERIE,B165,1220.0,1143,Divonne-les-Bains,1,,,01143000AP0360,,,41,,,,,,,,,,1,,,,,,,,,,6.145639,46.34855
222,2017-8537,2017-10-11,1,Vente,200000.0,5051.0,,AU VILLAGE,B081,1450.0,1077,Challes-la-Montagne,1,,,01077000ZA0216,,,,,,,,,,,,,0,4.0,Local industriel. commercial ou assimilé,273.0,0.0,S,sols,,,434.0,5.465689,46.125088
223,2017-8578,2017-09-28,1,Vente,575000.0,,,BONNARCHE,B005,1170.0,1173,Gex,1,,,01173000AD0049,,,,,,,,,,,,,0,,,,,S,sols,,,7.0,6.070158,46.338075
224,2017-8605,2017-07-25,1,Vente,,,,AUX VERSELETS,B108,1500.0,1089,Château-Gaillard,1,,,01089000ZH0144,,,,,,,,,,,,,0,,,,,T,terres,,,500.0,5.321065,45.957517
225,2017-8629,2017-09-29,1,Vente,124900.0,35.0,,ALL DU SAOUT,175,1110.0,1012,Aranc,1,,,010120000B1250,,,,,,,,,,,,,0,1.0,Maison,88.0,3.0,S,sols,,,999.0,5.51341,46.006803
226,2017-8676,2017-09-29,1,Vente,916390.0,5580.0,,SUR TAILLET,B166,1640.0,1199,Jujurieux,1,,,011990000B0758,,,,,,,,,,,,,0,1.0,Maison,80.0,3.0,S,sols,,,110.0,5.404424,46.042901
227,2017-8725,2017-10-16,1,Vente en l'état futur d'achèvement,239600.0,,,LOUYE,B003,1210.0,1160,Ferney-Voltaire,1,,,01160000AI0047,,,54,,,,,,,,,,1,3.0,Dépendance,,0.0,,,,,,6.114458,46.259625
228,2017-8763,2017-10-16,1,Vente,115000.0,119.0,,RUE DE LA PINEDE,464,1200.0,1033,Valserhône,1,1033.0,Bellegarde-sur-Valserine,01033000AD0265,,,88,,,,,,,,,,1,3.0,Dépendance,,0.0,,,,,,5.814097,46.116401
229,2017-8807,2017-10-30,1,Vente,175000.0,,,LONGEVILLE,B143,1500.0,1007,Ambronay,1,,,01007000ZA0181,,,,,,,,,,,,,0,,,,,S,sols,,,107.0,5.333193,46.035893
230,2017-8855,2017-10-23,2,Vente,65000.0,,,LA BARBIERE,B181,1200.0,1033,Valserhône,1,1091.0,Châtillon-en-Michaille,01033091AD0320,01091458AD0320,,,,,,,,,,,,0,,,,,P,prés,,,274.0,,
231,2017-8903,2017-10-19,1,Vente en l'état futur d'achèvement,372000.0,,,LES HAUTINS,B027,1630.0,1354,Saint-Genis-Pouilly,1,,,01354000AD0532,,,,,,,,,,,,,0,,,,,AB,terrains a bâtir,,,90.0,6.044696,46.26242
232,2017-8929,2017-10-20,1,Vente,190000.0,9001.0,,RUE DES VERTES CAMPAGNES,755,1170.0,1173,Gex,1,,,01173000AP0007,,,1648,,,,,,,,,,1,3.0,Dépendance,,0.0,,,,,,6.047156,46.323875
233,2017-8967,2017-11-06,1,Vente,12000.0,260.0,,RUE DES BOIS,25,1210.0,1281,Ornex,1,,,01281000AC0022,,,118,,,,,,,,,,1,3.0,Dépendance,,0.0,,,,,,,
234,2017-9020,2017-10-30,2,Vente,40000.0,,,LE CHATET,B031,1300.0,1098,Chazey-Bons,1,,,010980000B1246,,,,,,,,,,,,,0,,,,,AB,terrains a bâtir,,,915.0,5.691988,45.775789
235,2017-9066,2017-10-19,1,Vente en l'état futur d'achèvement,483000.0,,,LA BRETONNIERE,B009,1280.0,1313,Prévessin-Moëns,1,,,01313000AP0141,,,25,,,,,,,,,,1,3.0,Dépendance,,0.0,,,,,,6.071707,46.251447
236,2017-9113,2017-11-09,1,Vente,149550.0,22.0,,RUE STE MARIE,730,1300.0,1034,Belley,1,,,01034000AK0784,,,,,,,,,,,,,0,1.0,Maison,80.0,2.0,S,sols,,,267.0,5.690594,45.757796
237,2017-9160,2017-10-31,1,Vente en l'état futur d'achèvement,237000.0,,,FIN DE POUILLY,B022,1630.0,1354,Saint-Genis-Pouilly,1,,,01354000AY0139,,,78,,,,,,,,,,1,3.0,Dépendance,,0.0,,,,,,6.030848,46.251902
238,2017-9197,2017-11-10,1,Vente,8793.0,,,LE TERREAU,B257,1500.0,1004,Ambérieu-en-Bugey,1,,,01004000AC0801,,,,,,,,,,,,,0,,,,,P,prés,,,622.0,5.337847,45.970744
239,2017-9225,2017-11-06,1,Vente,292500.0,,,LA TROUPE,B154,1710.0,1419,Thoiry,1,,,01419000BE0263,,,,,,,,,,,,,0,,,,,P,prés,,,175.0,5.968498,46.227071
240,2017-9270,2017-11-09,1,Vente en l'état futur d'achèvement,17500.0,,,LE MANEGLY,B036,1630.0,1354,Saint-Genis-Pouilly,1,,,01354000AX0178,,,416,,,,,,,,,,1,,,,,,,,,,6.025927,46.242027
241,2017-9303,2017-11-10,1,Vente,163900.0,2.0,B,RUE DU TIRET,610,1500.0,1004,Ambérieu-en-Bugey,1,,,01004000AW0296,,,,,,,,,,,,,0,1.0,Maison,90.0,4.0,S,sols,,,134.0,5.354697,45.967819
242,2017-9344,2017-11-09,1,Vente en l'état futur d'achèvement,401000.0,,,LA TUILERIE,B165,1220.0,1143,Divonne-les-Bains,1,,,01143000AP0360,,,170,,,,,,,,,,1,3.0,Dépendance,,0.0,,,,,,6.145639,46.34855
243,2017-9382,2017-11-23,1,Vente,539053.0,662.0,,RUE VOLTAIRE,780,1220.0,1143,Divonne-les-Bains,1,,,01143000AN0166,,,48,,,,,,,,,,1,3.0,Dépendance,,0.0,,,,,,6.131498,46.353595
244,2017-9427,2017-11-29,1,Vente,108000.0,,,SUR RAMPOT,B074,1150.0,1099,Chazey-sur-Ain,1,,,010990000C1801,,,,,,,,,,,,,0,,,,,AB,terrains a bâtir,,,236.0,5.256534,45.896931
245,2017-9471,2017-11-22,1,Vente,20000.0,,,FIN DE POUILLY,B022,1630.0,1354,Saint-Genis-Pouilly,1,,,01354000AY0183,,,47,,,,,,,,,,1,3.0,Dépendance,,0.0,,,,,,6.027871,46.250446
246,2017-9508,2017-11-14,1,Vente en l'état futur d'achèvement,458000.0,,,,,,1419,Thoiry,1,,,01419000BM0206,,,65,,,,,,,,,,1,,,,,,,,,,5.97884,46.232134
247,2017-9548,2017-11-30,1,Vente,40000.0,34.0,,RUE DE LA FORGE,550,1100.0,1283,Oyonnax,1,,,01283000AN0603,,,,,,,,,,,,,0,1.0,Maison,84.0,4.0,S,sols,,,363.0,5.639833,46.258449
248,2017-9592,2017-11-23,1,Vente,410000.0,50.0,,RUE GABRIEL PERI,590,1100.0,1283,Oyonnax,1,,,01283000AH0214,,,,,,,,,,,,,0,4.0,Local industriel. commercial ou assimilé,100.0,0.0,S,sols,,,1044.0,5.653872,46.260327
249,2017-9628,2017-12-08,2,Vente,116000.0,5185.0,,LA BISSAUDE,B005,1410.0,1247,Mijoux,1,,,012470000B1921,,,,,,,,,,,,,0,1.0,Maison,75.0,4.0,,,,,,5.998484,46.366132
250,2017-9674,2017-12-06,1,Vente,93000.0,,,CHAMP BACHET,B010,1200.0,1189,Injoux-Génissiat,1,,,011890000C2121,,,,,,,,,,,,,0,,,,,S,sols,,,785.0,5.796975,46.055382
251,2017-9712,2017-11-30,1,Vente en l'état futur d'achèvement,378000.0,,,LES HAUTINS,B027,1630.0,1354,Saint-Genis-Pouilly,1,,,01354000AD0548,,,,,,,,,,,,,0,,,,,AB,terrains a bâtir,,,87.0,6.044442,46.262226
252,2017-9749,2017-12-04,1,Vente,5000.0,,,SUR LA GRANGE,B231,1230.0,1384,Saint-Rambert-en-Bugey,1,,,01384000ZO0029,,,,,,,,,,,,,0,,,,,P,prés,,,6378.0,5.416899,45.958369
253,2017-9784,2017-12-07,1,Vente en l'état futur d'achèvement,241000.0,,,LE MANEGLY,B036,1630.0,1354,Saint-Genis-Pouilly,1,,,01354000AX0178,,,414,,,,,,,,,,1,,,,,,,,,,6.025927,46.242027
254,2017-9824,2017-12-07,1,Vente en l'état futur d'achèvement,84000.0,,,PRES DES MARAIS,B050,1630.0,1354,Saint-Genis-Pouilly,1,,,01354000BD0433,,,54,14.8,,,,,,,,,1,3.0,Dépendance,,0.0,,,,,,6.023517,46.248209
255,2017-9867,2017-12-11,1,Vente,148430.0,60.0,,ALL DES FRERES CAUDRON,295,1500.0,1004,Ambérieu-en-Bugey,1,,,01004000BD0312,,,110,68.86,,,,,,,,,1,2.0,Appartement,67.0,3.0,,,,,,5.359655,45.960411
256,2017-9903,2017-12-21,2,Vente,230000.0,,,LE BOURG ARBIGNIEU,B023,1300.0,1015,Arboys en Bugey,1,,,010150000B1145,,,,,,,,,,,,,0,,,,,S,sols,,,105.0,5.651205,45.728829
257,2017-9940,2017-12-19,1,Vente,231500.0,,,LE POULET,B271,1680.0,1216,Lhuis,1,,,012160000F0070,,,,,,,,,,,,,0,,,,,L,landes,,,25.0,5.562391,45.72972
258,2017-9973,2017-12-18,1,Vente,34000.0,,,LA GUILLOTIERE,B132,1500.0,1004,Ambérieu-en-Bugey,1,,,01004000BN0239,,,,,,,,,,,,,0,,,,,S,sols,,,56.0,5.368018,45.949815
259,2017-10016,2017-12-18,1,Vente,274570.0,19.0,,AV DU JURA,25,1210.0,1160,Ferney-Voltaire,1,,,01160000AM0511,,,111,,,,,,,,,,1,3.0,Dépendance,,0.0,,,,,,6.113976,46.256876
260,2017-10049,2017-12-22,2,Vente,1020000.0,,,PONCIAZ,B302,1110.0,1185,Plateau d'Hauteville,1,1185.0,Hauteville-Lompnes,011850000L1078,,,,,,,,,,,,,0,,,,,L,landes,,,17139.0,5.584387,45.990327
261,2017-10082,2017-12-20,1,Vente,730000.0,1301.0,,RUE GUY DE MAUPASSANT,515,1220.0,1143,Divonne-les-Bains,1,,,011430000H1597,,,,,,,,,,,,,0,3.0,Dépendance,,0.0,S,sols,,,1043.0,6.148351,46.369752
262,2017-10121,2017-12-11,1,Vente,290000.0,5366.0,,CREPIAT,B074,1460.0,1267,Nurieux-Volognat,1,,,01267000AC0124,,,,,,,,,,,,,0,1.0,Maison,326.0,4.0,S,sols,,,1500.0,5.517408,46.215868
263,2017-10165,2017-12-21,1,Vente,270000.0,,,RUE SAINT MAURICE,100,1170.0,1103,Chevry,1,,,011030000B0134,,,148,,32.0,,41.0,,52.0,61.78,,,4,2.0,Appartement,63.0,3.0,,,,,,6.038722,46.280819
264,2017-10186,2017-12-22,1,Vente,110000.0,34.0,,RUE GABRIEL PERI,590,1100.0,1283,Oyonnax,1,,,01283000AH0863,,,13,81.35,7.0,,,,,,,,2,2.0,Appartement,81.0,3.0,,,,,,5.655085,46.261458
265,2017-10224,2017-12-21,1,Vente,169500.0,9.0,,RUE DU FOUR,63,1640.0,1199,Jujurieux,1,,,01199000AD0121,,,,,,,,,,,,,0,1.0,Maison,38.0,2.0,S,sols,,,190.0,5.41336,46.044638
266,2017-10256,2017-12-21,1,Vente en l'état futur d'achèvement,499500.0,,,,,,1419,Thoiry,1,,,01419000BM0206,,,94,,,,,,,,,,1,,,,,,,,,,5.97884,46.232134
267,2017-10301,2017-12-28,1,Vente en l'état futur d'achèvement,299900.0,,,LES MARAIS,B004,1210.0,1160,Ferney-Voltaire,1,,,01160000AM0513,,,71,,,,,,,,,,1,,,,,,,,,,6.114821,46.257821
268,2017-10342,2017-12-29,1,Vente,1074025.0,109.0,,CHE DE PAIN LOUP,538,1220.0,1143,Divonne-les-Bains,1,,,011430000H1352,,,,,,,,,,,,,0,1.0,Maison,172.0,8.0,S,sols,,,1296.0,6.152905,46.370223
269,2017-10360,2017-12-28,1,Vente,713718.2,700.0,B,RTE DE DIVONNE LES BAINS,28,1220.0,1180,Grilly,1,,,01180000AA0087,,,,,,,,,,,,,0,4.0,Local industriel. commercial ou assimilé,31.0,0.0,S,sols,,,2709.0,6.117478,46.335923
270,2017-10399,2017-12-29,1,Vente,1000.0,,,AU PELLAN,B156,1200.0,1033,Valserhône,1,1091.0,Châtillon-en-Michaille,01033091ZC0318,01091278ZC0318,,,,,,,,,,,,0,,,,,S,sols,,,1918.0,,
271,2017-10439,2017-01-09,2,Vente,348000.0,2225.0,,RTE DE GENEVE,370,1700.0,1043,Beynost,1,,,01043000AL0833,,,,,,,,,,,,,0,3.0,Dépendance,,0.0,S,sols,,,242.0,4.987241,45.831748
272,2017-10477,2017-01-10,1,Vente,227500.0,112.0,,RUE MARCEL PAGNOL,330,1480.0,1194,Jassans-Riottier,1,,,01194000AE0148,,,,,,,,,,,,,0,1.0,Maison,87.0,4.0,S,sols,,,709.0,4.764582,45.989045
273,2017-10525,2017-01-05,1,Vente,97500.0,,,DOMAINE FIAGEOLLET,B044,1400.0,1093,Châtillon-sur-Chalaronne,1,,,010930000C3967,,,,,,,,,,,,,0,,,,,AB,terrains a bâtir,,,745.0,4.964596,46.109767
274,2017-10591,2017-01-30,1,Vente,76800.0,,,EN PRELE,B060,1480.0,1398,Savigneux,1,,,01398000ZL0332,,,,,,,,,,,,,0,,,,,S,sols,,,361.0,4.839647,46.00066
275,2017-10642,2017-01-26,1,Vente,7352.0,,,PETIT BRESSET,B100,1360.0,1032,Béligneux,1,,,010320000C1229,,,,,,,,,,,,,0,,,,,P,prés,,,2721.0,5.13031,45.861437
276,2017-10683,2017-01-23,1,Vente,250000.0,121.0,,RUE DE LA REPUBLIQUE,450,1990.0,1389,Saint-Trivier-sur-Moignans,1,,,013890000C0142,,,,,,,,,,,,,0,2.0,Appartement,45.0,2.0,S,sols,,,459.0,4.896408,46.071937
277,2017-10744,2017-02-08,2,Vente,446250.0,67.0,,CHE DES CREUSES,170,1600.0,1347,Saint-Didier-de-Formans,1,,,013470000B2261,,,,,,,,,,,,,0,1.0,Maison,140.0,5.0,S,sols,,,820.0,4.781913,45.956077
278,2017-10789,2017-02-15,1,Vente,215000.0,777.0,,CHE DU TREVE D ARS,499,1600.0,1322,Reyrieux,1,,,01322000ZL0595,,,,,,,,,,,,,0,1.0,Maison,180.0,5.0,S,sols,,,426.0,4.823546,45.922591
279,2017-10828,2017-02-10,1,Vente,215000.0,55.0,,CHE DU PETIT ETANG,298,1320.0,1074,Chalamont,1,,,010740000B0882,,,,,,,,,,,,,0,1.0,Maison,90.0,4.0,S,sols,,,400.0,5.174683,45.996745
280,2017-10864,2017-02-28,1,Vente,170250.0,12.0,,RUE DU SEMINAIRE,720,1800.0,1244,Meximieux,1,,,012440000G0169,,,,,,,,,,,,,0,1.0,Maison,120.0,4.0,S,sols,,,145.0,5.194967,45.905644
281,2017-10914,2017-01-24,1,Vente,78000.0,,,MEILLON,B054,1090.0,1165,Francheleins,1,,,011650030A1574,,,,,,,,,,,,,0,,,,,AG,terrains d'agrément,,,1369.0,4.773398,46.079405
282,2017-10958,2017-03-07,1,Vente,253000.0,,,LA PECOTAZ,B075,1700.0,1043,Beynost,1,,,01043000AD0474,,,,,,,,,,,,,0,,,,,J,jardins,,,20.0,4.999842,45.837232
283,2017-10995,2017-01-27,2,Vente,120000.0,,,ALL JEAN MERMOZ,232,1480.0,1194,Jassans-Riottier,1,,,01194000AO0177,,,,,,,,,,,,,0,,,,,P,prés,,,538.0,4.757005,45.977708
284,2017-11046,2017-03-06,1,Vente,167480.0,42.0,,RUE LAVERAN,480,1330.0,1443,Villars-les-Dombes,1,,,01443000BO0025,,,11,,,,,,,,,,1,3.0,Dépendance,,0.0,,,,,,5.031039,46.001004
285,2017-11101,2017-03-20,1,Vente,380600.0,3.0,,CHE DU ZONCHET,130,1800.0,1378,Saint-Maurice-de-Gourdans,1,,,"1,378E+055",,,,,,,,,,,,,0,1.0,Maison,165.0,7.0,AG,terrains d'agrément,,,495.0,5.18167,45.812734
286,2017-11155,2017-03-30,1,Vente,950000.0,,,LES GRAVELLES,B092,1700.0,1249,Miribel,1,,,01249000AE0490,,,,,,,,,,,,,0,,,,,T,terres,,,1198.0,4.961056,45.825499
287,2017-11203,2017-03-31,1,Vente,355000.0,91.0,,CHE DES EBAUDES,144,1600.0,1238,Massieux,1,,,01238000AE0022,,,,,,,,,,,,,0,1.0,Maison,89.0,4.0,AG,terrains d'agrément,,,824.0,4.836701,45.911582
288,2017-11253,2017-03-22,1,Vente,128000.0,,,LES BRUYERES,B002,1600.0,1423,Toussieux,1,,,014230000A1774,,,,,,,,,,,,,0,,,,,J,jardins,,,35.0,4.818529,45.951715
289,2017-11304,2017-04-12,1,Vente,2500.0,,,LE VILLAGE,B086,1660.0,1429,Vandeins,1,,,014290000B1005,,,,,,,,,,,,,0,,,,,S,sols,,,89.0,5.079909,46.214903
290,2017-11332,2017-04-06,1,Vente,192000.0,,,LES SABLES,B058,1600.0,1322,Reyrieux,1,,,01322000AS0878,,,,,,,,,,,,,0,,,,,AB,terrains a bâtir,,,700.0,4.811238,45.93397
291,2017-11383,2017-04-14,1,Vente,160000.0,20.0,,GR GRANDE RUE,680,1120.0,1262,Montluel,1,,,01262000AB0843,,,23,75.45,5.0,,,,,,,,2,2.0,Appartement,76.0,3.0,,,,,,5.058715,45.852038
292,2017-11414,2017-04-18,1,Vente,372400.0,,,GRANDES BRUYERES,B010,1600.0,1339,Saint-Bernard,1,,,01339000AC0064,,,,,,,,,,,,,0,,,,,AG,terrains d'agrément,,,438.0,4.752502,45.954589
293,2017-11459,2017-04-14,1,Vente,132407.0,9.0,,RUE HENRI MATISSE,77,1480.0,1030,Beauregard,1,,,01030000AC0134,,,,,,,,,,,,,0,1.0,Maison,87.0,4.0,S,sols,,,182.0,4.752486,46.000018
294,2017-11502,2017-04-28,1,Vente,304050.0,,,PRE BLANC,B024,1600.0,1238,Massieux,1,,,01238000AC0229,,,,,,,,,,,,,0,,,,,S,sols,,,30.0,4.824462,45.905159
295,2017-11553,2017-04-27,1,Vente,1127920.4,6379.0,,ALL PR ALEXANDRE LACASSAGNE,520,1700.0,1043,Beynost,1,,,01043000AK0801,,,,,,,,,,,,,0,3.0,Dépendance,,0.0,S,sols,,,1113.0,4.999386,45.834664
296,2017-11567,2017-04-12,1,Vente,2718354.2,,,LES ECHETS,B062,1700.0,1249,Miribel,1,,,01249000AO0010,,,33,,,,,,,,,,1,3.0,Dépendance,,0.0,,,,,,4.914828,45.870387
297,2017-11606,2017-05-19,1,Vente,220000.0,80.0,,CHE DES OURES,617,1330.0,1443,Villars-les-Dombes,1,,,01443000BD0073,,,1,428.0,,,,,,,,,1,4.0,Local industriel. commercial ou assimilé,569.0,0.0,,,,,,5.029097,45.996394
298,2017-11649,2017-05-30,2,Vente,,69.0,,RUE DU FIGUIER,135,1700.0,1249,Miribel,1,,,012490000C2910,,,,,,,,,,,,,0,2.0,Appartement,80.0,4.0,,,,,,4.966769,45.829105
299,2017-11690,2017-05-16,1,Vente,426200.0,,,SOUS LE BOURG,B160,1700.0,1249,Miribel,1,,,01249000AE1070,,,,,,,,,,,,,0,,,,,S,sols,,,88.0,4.952697,45.826749
300,2017-11725,2017-05-23,1,Vente,175000.0,178.0,,RTE DE REYRIEUX,1140,1600.0,1427,Trévoux,1,,,01427000AH0176,,,,,,,,,,,,,0,4.0,Local industriel. commercial ou assimilé,36.0,0.0,S,sols,,,487.0,4.788037,45.939252
301,2017-11755,2017-05-30,1,Vente,550000.0,,,LA VUILLARDIERE,B137,1800.0,1244,Meximieux,1,,,012440000B1342,,,,,,,,,,,,,0,,,,,P,prés,,,12.0,5.198923,45.918071
302,2017-11787,2017-05-23,1,Vente,203400.0,47.0,,RUE BARRIT,10,1400.0,1093,Châtillon-sur-Chalaronne,1,,,010930000C2929,,,,,,,,,,,,,0,,,,,S,sols,,,766.0,4.955624,46.118798
303,2017-11832,2017-05-31,1,Vente,363300.0,,,SAINT SORLIN,B059,1600.0,1322,Reyrieux,1,,,01322000AS0543,,,,,,,,,,,,,0,,,,,P,prés,,,1375.0,4.797112,45.93556
304,2017-11868,2017-06-08,1,Vente,315000.0,456.0,,MTE BALMONT,25,1600.0,1322,Reyrieux,1,,,01322000AR0627,,,,,,,,,,,,,0,3.0,Dépendance,,0.0,S,sols,,,6.0,4.81217,45.93991
305,2017-11911,2017-06-12,1,Vente,108000.0,197.0,,AV PASTEUR,660,1330.0,1443,Villars-les-Dombes,1,,,01443000BO0358,,,14,,52.0,95.7,,,,,,,2,2.0,Appartement,81.0,4.0,,,,,,5.033417,46.001424
306,2017-11955,2017-06-06,1,Vente,170000.0,648.0,,RUE DE ST TRIVIER,480,1090.0,1263,Montmerle-sur-Saône,1,,,01263000AH1171,,,,,,,,,,,,,0,1.0,Maison,113.0,6.0,S,sols,,,693.0,4.768985,46.079674
307,2017-12004,2017-06-23,1,Vente,366000.0,,,LE VILLAGE,B068,1120.0,1142,Dagneux,1,,,01142000AC0785,,,,,,,,,,,,,0,,,,,S,sols,,,1039.0,5.071619,45.853704
308,2017-12051,2017-06-22,2,Vente,55000.0,,,LA GLAYE,B049,1800.0,1290,Pérouges,1,,,012900000A2377,,,,,,,,,,,,,0,,,,,S,sols,,,603.0,5.17109,45.907928
309,2017-12099,2017-07-07,1,Vente,213072.0,189.0,,RTE DE BRESSOLLES,50,1120.0,1142,Dagneux,1,,,01142000AD0164,,,,,,,,,,,,,0,1.0,Maison,113.0,5.0,S,sols,,,86.0,5.07998,45.851272
310,2017-12142,2017-07-03,1,Vente,451131.0,10.0,,IMP DES AIGRETTES,4,1800.0,1244,Meximieux,1,,,012440000A1066,,,,,,,,,,,,,0,1.0,Maison,175.0,6.0,AG,terrains d'agrément,,,866.0,5.188018,45.9169
311,2017-12184,2017-06-30,1,Vente,157250.0,390.0,,RTE DE MARMONT,116,1540.0,1457,Vonnas,1,,,014570000C0501,,,,,,,,,,,,,0,1.0,Maison,69.0,4.0,S,sols,,,753.0,4.980408,46.2155
312,2017-12224,2017-07-20,1,Vente,420000.0,,,BARBAREL,B002,1140.0,1351,Saint-Étienne-sur-Chalaronne,1,,,013510000B0118,,,,,,,,,,,,,0,,,,,P,prés,,,680.0,4.886322,46.154457
313,2017-12285,2017-07-03,1,Vente,313600.0,,,AU GOURLAS,B017,1480.0,1157,Fareins,1,,,01157000AM0098,,,,,,,,,,,,,0,,,,,S,sols,,,10.0,4.757222,46.013667
314,2017-12332,2017-07-20,1,Vente,327500.0,,,VILLAGE DE BEAUREGARD,B012,1480.0,1030,Beauregard,1,,,01030000AA0138,,,,,,,,,,,,,0,,,,,J,jardins,,,293.0,4.752508,46.0015
315,2017-12382,2017-07-24,1,Vente,197000.0,6100.0,,MAILLARD,B076,1400.0,1093,Châtillon-sur-Chalaronne,1,,,010930000A0476,,,,,,,,,,,,,0,1.0,Maison,125.0,5.0,AG,terrains d'agrément,,,1576.0,4.946434,46.113461
316,2017-12432,2017-07-07,2,Vente,80000.0,,,AUX DIMES,B072,1990.0,1389,Saint-Trivier-sur-Moignans,1,,,013890000D0620,,,,,,,,,,,,,0,,,,,T,terres,,,177.0,4.903773,46.043117
317,2017-12479,2017-07-12,1,Vente,349000.0,5194.0,,FAUCHOUX,B040,1800.0,1361,Saint-Jean-de-Niost,1,,,013610000B0711,,,,,,,,,,,,,0,1.0,Maison,121.0,4.0,S,sols,,,761.0,5.230307,45.840395
318,2017-12520,2017-07-31,3,Vente,175000.0,,,CHANEINS,B025,1990.0,1083,Chaneins,1,,,010830000A1044,,,,,,,,,,,,,0,,,,,S,sols,,,39.0,4.851259,46.094793
319,2017-12559,2017-07-26,1,Vente,379150.0,,,A RETISSINGE,B067,1290.0,1046,Biziat,1,,,010460000A1052,,,,,,,,,,,,,0,,,,,S,sols,,,700.0,,
320,2017-12611,2017-07-26,1,Vente,331150.0,9.0,,LOT LE MOULIN,A025,1330.0,1299,Le Plantay,1,,,012990000A1025,,,,,,,,,,,,,0,1.0,Maison,200.0,8.0,AG,terrains d'agrément,,,2319.0,5.086595,46.023633
321,2017-12651,2017-07-28,2,Vente,233050.0,5014.0,,AU CAILLAT,B015,1140.0,1351,Saint-Étienne-sur-Chalaronne,1,,,01351000ZD0099,,,,,,,,,,,,,0,1.0,Maison,121.0,4.0,S,sols,,,954.0,4.854633,46.165395
322,2017-12685,2017-08-01,1,Vente,147000.0,386.0,,AV CHARLES DE GAULLE,250,1800.0,1450,Villieu-Loyes-Mollon,1,,,014500000B2114,,,8,,,,,,,,,,1,2.0,Appartement,67.0,3.0,,,,,,5.222491,45.919259
323,2017-12726,2017-08-25,1,Vente,214000.0,5335.0,,VILLESOLIER,B067,1140.0,1351,Saint-Étienne-sur-Chalaronne,1,,,013510000B0934,,,,,,,,,,,,,0,1.0,Maison,107.0,6.0,S,sols,,,1000.0,4.878573,46.147767
324,2017-12754,2017-06-19,1,Vente,550000.0,,,LA VUILLARDIERE,B137,1800.0,1244,Meximieux,1,,,012440000B1188,,,,,,,,,,,,,0,,,,,T,terres,,,416.0,5.198167,45.919329
325,2017-12784,2017-08-24,1,Vente,160000.0,,,LES BOULEAUX,B012,1990.0,1028,Baneins,1,,,01028000ZB0049,,,,,,,,,,,,,0,,,,,P,prés,,,41850.0,4.918244,46.122573
326,2017-12818,2017-08-28,1,Vente,431950.0,,,TERRE DE LA COUR,B164,1700.0,1249,Miribel,1,,,012490000B1333,,,,,,,,,,,,,0,,,,,S,sols,,,354.0,4.951617,45.831688
327,2017-12865,2017-09-15,2,Vente,,17.0,B,RUE DE BEL AIR,60,1140.0,1420,Thoissey,1,,,01420000AB0924,,,,,,,,,,,,,0,4.0,Local industriel. commercial ou assimilé,,0.0,S,sols,,,5101.0,4.801271,46.175227
328,2017-12901,2017-09-06,1,Vente,403000.0,,,LE CHANAYRON,B002,1600.0,1238,Massieux,1,,,01238000AK0026,,,,,,,,,,,,,0,,,,,S,sols,,,72.0,,
329,2017-12945,2017-09-07,1,Vente,127000.0,,,EN BOUGER,B005,1800.0,1361,Saint-Jean-de-Niost,1,,,013610000B2232,,,,,,,,,,,,,0,,,,,AB,terrains a bâtir,,,770.0,5.226239,45.850054
330,2017-12987,2017-09-12,1,Vente,62500.0,,,LE VILLAGE,B110,1400.0,1328,Romans,1,,,013280000B0892,,5.0,,,,,,,,,,,0,,,,,,,,,,5.022743,46.118918
331,2017-13031,2017-09-15,1,Vente,613013.2,9005.0,,LOT LES GRANGES,A006,1700.0,1249,Miribel,1,,,01249000AB0560,,,,,,,,,,,,,0,1.0,Maison,144.0,5.0,S,sols,,,833.0,4.941956,45.829055
332,2017-13078,2017-10-02,1,Vente,260000.0,13.0,,RUE DE LA GARE,390,1800.0,1244,Meximieux,1,,,012440000G0088,,,,,,,,,,,,,0,2.0,Appartement,50.0,2.0,S,sols,,,69.0,5.193218,45.903144
333,2017-13115,2017-09-28,1,Vente,150800.0,80.0,,RUE DU TORRENT,768,1120.0,1262,Montluel,1,,,01262000AC0212,,,100,,,,,,,,,,1,3.0,Dépendance,,0.0,,,,,,5.059129,45.849805
334,2017-13160,2017-09-20,1,Vente,226650.0,18.0,,RUE DES ORMES,289,1700.0,1249,Miribel,1,,,01249000AP0002,,,12,,,,,,,,,,1,3.0,Dépendance,,0.0,,,,,,4.918238,45.870377
335,2017-13196,2017-09-26,1,Vente,55000.0,,,LE FOUILLOUX,B034,1120.0,1342,Sainte-Croix,1,,,013420000B0617,,,,,,,,,,,,,0,,,,,S,sols,,,591.0,5.042833,45.903816
336,2017-13243,2017-09-22,1,Vente,126900.0,,,VEISSIEUX LE BAS,B069,1600.0,1322,Reyrieux,1,,,01322000AN0762,,,,,,,,,,,,,0,,,,,AB,terrains a bâtir,,,458.0,4.823544,45.929324
337,2017-13298,2017-10-02,1,Vente,125000.0,17.0,,RUE DU BUGEY,140,1330.0,1443,Villars-les-Dombes,1,,,01443000BO0345,,,,,,,,,,,,,0,2.0,Appartement,75.0,3.0,S,sols,,,65.0,5.029978,45.999766
338,2017-13347,2017-10-13,1,Vente,80000.0,95.0,,CHE DE LA POMMERELLE,345,1400.0,1001,L'Abergement-Clémenciat,1,,,01001000ZC0038,,,,,,,,,,,,,0,1.0,Maison,79.0,2.0,S,sols,,,1220.0,4.921528,46.156706
339,2017-13391,2017-10-19,1,Vente,322700.0,,,LES GRANDES TERRES,B013,1600.0,1423,Toussieux,1,,,014230000A1281,,,,,,,,,,,,,0,,,,,S,sols,,,33.0,4.822843,45.960109
340,2017-13442,2017-10-16,1,Vente,110000.0,319.0,,RUE DU HUIT MAI 1945,429,1330.0,1443,Villars-les-Dombes,1,,,01443000BO0358,,,37,,68.0,84.5,,,,,,,2,2.0,Appartement,81.0,4.0,,,,,,5.033417,46.001424
341,2017-13480,2017-10-19,2,Vente,1500.0,,,LES FAUSSES,B064,1400.0,1113,Condeissiat,1,,,011130000D0505,,,,,,,,,,,,,0,,,,,P,prés,,,3170.0,5.063542,46.158239
342,2017-13532,2017-09-29,1,Vente,343000.0,,,LE VILLAGE,B059,1120.0,1276,Niévroz,1,,,012760000B1437,,,,,,,,,,,,,0,,,,,S,sols,,,555.0,5.062606,45.826599
343,2017-13569,2017-11-06,1,Vente en l'état futur d'achèvement,207500.0,,,BONATIER,B025,1390.0,1248,Mionnay,1,,,01248000AE0216,,,,,,,,,,,,,0,,,,,AB,terrains a bâtir,,,12.0,4.935326,45.894918
344,2017-13614,2017-11-02,1,Vente,126000.0,,,AU GIROUD,B075,1120.0,1297,Pizay,1,,,012970000A1648,,,,,,,,,,,,,0,,,,,S,sols,,,326.0,5.093939,45.888597
345,2017-13655,2017-11-16,3,Vente,290000.0,180.0,,RTE DE GENEVE,340,1360.0,1032,Béligneux,1,,,010320000C0262,,,,,,,,,,,,,0,2.0,Appartement,30.0,1.0,S,sols,,,231.0,5.125803,45.850331
346,2017-13696,2017-11-10,1,Vente,113500.0,306.0,,RUE JUSTIN ET GENEVIEVE BERGER,60,1330.0,1443,Villars-les-Dombes,1,,,01443000BB0307,,,15,,,,,,,,,,1,3.0,Dépendance,,0.0,,,,,,5.02516,46.001072
347,2017-13758,2017-11-30,1,Vente,269650.0,705.0,,CHE DU PELEUX,367,1090.0,1263,Montmerle-sur-Saône,1,,,01263000AB0723,,,,,,,,,,,,,0,1.0,Maison,112.0,4.0,S,sols,,,500.0,4.769177,46.093973
348,2017-13800,2017-12-05,1,Vente,930.0,,,GROGNET,B055,1800.0,1378,Saint-Maurice-de-Gourdans,1,,,013780000D0430,,,,,,,,,,,,,0,,,,,T,terres,,,4630.0,5.178463,45.819909
349,2017-13847,2017-11-30,2,Vente,1.0,,,LES FOLLIETS,B028,1700.0,1376,Saint-Maurice-de-Beynost,1,,,01376000AD0701,,,,,,,,,,,,,0,,,,,S,sols,,,3135.0,4.979487,45.830855
350,2017-13893,2017-12-12,2,Vente,76837.48,,,LES MARQUETTES,B061,1700.0,1043,Beynost,1,,,01043000AN0937,,,,,,,,,,,,,0,,,,,S,sols,,,689.0,5.007323,45.825224
351,2017-13918,2017-12-07,1,Vente,75000.0,,,MALVERNAY,B041,1540.0,1368,Saint-Julien-sur-Veyle,1,,,01368000ZH0016,,,,,,,,,,,,,0,,,,,P,prés,,,49460.0,4.96917,46.190655
352,2017-13958,2017-12-18,2,Vente,15573.16,,,LES BRUYERES,B005,1090.0,1225,Lurcy,1,,,01225000ZD0042,,,,,,,,,,,,,0,,,,,T,terres,,,3861.0,4.796541,46.05335
353,2017-13987,2017-12-06,2,Vente,160000.0,,,LE BOURG,B013,1800.0,1054,Bourg-Saint-Christophe,1,,,010540000B1749,,,,,,,,,,,,,0,,,,,S,sols,,,98.0,5.164992,45.894097
354,2017-14030,2017-12-26,1,Vente,317000.0,207.0,,CHE DES BRUYERES,120,1360.0,1032,Béligneux,1,,,010320000C3445,,,,,,,,,,,,,0,1.0,Maison,90.0,4.0,S,sols,,,500.0,5.117906,45.850649
355,2017-14065,2017-12-15,1,Vente,152600.0,1715.0,,RTE NATIONALE,396,1120.0,1049,La Boisse,1,,,01049000AB0302,,,3,68.64,9.0,,,,,,,,2,2.0,Appartement,66.0,2.0,,,,,,5.026662,45.842345
356,2017-14103,2017-12-21,3,Vente,,,,SAINT MARTIN,B058,1140.0,1351,Saint-Étienne-sur-Chalaronne,1,,,013510000D0856,,,,,,,,,,,,,0,,,,,P,prés,,,676.0,4.841924,46.149953
357,2017-14153,2017-12-21,1,Vente,184000.0,115.0,,RUE DE LA CHANAL,60,1700.0,1249,Miribel,1,,,01249000AD0780,,,84,,,,,,,,,,1,3.0,Dépendance,,0.0,,,,,,4.946491,45.822574
358,2017-14200,2017-12-27,1,Vente,200000.0,354.0,,RTE DE ST NIZIER LE DESERT,430,1240.0,1235,Marlieux,1,,,012350000A0712,,,,,,,,,,,,,0,1.0,Maison,130.0,6.0,S,sols,,,894.0,5.078727,46.064565
359,2017-14249,2017-05-30,1,Adjudication,120000.0,5402.0,,RUE ST HONORE,366,1320.0,1074,Chalamont,1,,,010740000E0939,,,,,,,,,,,,,0,2.0,Appartement,216.0,9.0,S,sols,,,580.0,5.169496,45.997136
360,2017-14299,2017-01-13,1,Vente,61000.0,,,LE HAUT DU GLANARD,B019,2800.0,2260,Danizy,2,,,02260000AB0268,,,,,,,,,,,,,0,,,,,J,jardins,,,548.0,3.393548,49.662781
361,2017-14350,2017-01-23,1,Vente,6225.0,,,LES MARAIS DU PETIT JUVINC,B062,2190.0,2399,Juvincourt-et-Damary,2,,,02399000AC0039,,,,,,,,,,,,,0,,,,,L,landes,,,2013.0,3.882332,49.456056
362,2017-14395,2017-01-11,1,Vente,65000.0,,,LES CLOS CHAMPAGNE,B015,2860.0,2508,Monthenault,2,,,02508000AB0048,,,,,,,,,,,,,0,,,,,T,terres,,,7812.0,3.665912,49.484119
363,2017-14446,2017-01-25,1,Vente,62000.0,7.0,,RUE J FRANCOIS GLATIGNY,1255,2000.0,2408,Laon,2,,,02408000BP0092,,,,,,,,,,,,,0,1.0,Maison,68.0,3.0,L,landes,,,1341.0,3.607706,49.56156
364,2017-14484,2017-01-25,1,Vente,50000.0,,,GRATREUX,A011,2360.0,2642,Résigny,2,,,02642000AC0121,,,,,,,,,,,,,0,,,,,S,sols,,,189.0,4.218095,49.747205
365,2017-14515,2017-02-07,2,Vente,1382.5,,,NOTRE DAME,B176,2870.0,2238,Crépy,2,,,022380000C1274,,,,,,,,,,,,,0,,,,,PA,pâtures,,,270.0,3.5195,49.601895
366,2017-14560,2017-02-03,1,Vente,120000.0,2.0,,RUE DE GUIGNICOURT,47,2190.0,2399,Juvincourt-et-Damary,2,,,02399000AD0299,,,,,,,,,,,,,0,1.0,Maison,241.0,7.0,S,sols,,,1623.0,3.895864,49.446512
367,2017-14604,2017-02-15,1,Vente,12950.0,,,LE BUISSON MADAME,B005,2340.0,2200,Clermont-les-Fermes,2,,,02200000ZE0021,,,,,,,,,,,,,0,,,,,T,terres,,,2058.0,3.942069,49.652437
368,2017-14624,2017-02-15,1,Vente,110000.0,14.0,,RUE MARC LABRUYERE,65,2300.0,2086,Bichancourt,2,,,02086000ZE0042,,,,,,,,,,,,,0,1.0,Maison,80.0,5.0,S,sols,,,766.0,3.210841,49.582049
369,2017-14663,2017-03-08,1,Vente,16000.0,,,LES ROUILLARDS,B096,2860.0,2413,Laval-en-Laonnois,2,,,024130000B0945,,,,,,,,,,,,,0,,,,,BT,taillis simples,,,2747.0,3.600659,49.492756
370,2017-14697,2017-02-17,1,Vente,529350.0,,,LA TERRE DU CHAPITRE,B037,2000.0,2157,Chambry,2,,,02157000ZW0013,,,,,,,,,,,,,0,,,,,T,terres,,,11897.0,3.679931,49.588983
371,2017-14741,2017-03-01,1,Vente,500.0,,,LE MENIL,B057,2700.0,2049,Barisis-aux-Bois,2,,,02049000AM0030,,,,,,,,,,,,,0,,,,,BT,taillis simples,,,1380.0,3.350553,49.563324
372,2017-14768,2017-02-28,1,Vente,198033.5,,,SOUS LE BOIS DE LA VALLEE,B047,2000.0,2499,Montbavin,2,,,02499000AC0055,,,,,,,,,,,,,0,,,,,BT,taillis simples,,,666.0,3.521292,49.522472
373,2017-14790,2017-03-23,1,Vente,62532.0,,,LE FOSSE MICHE,B030,2340.0,2641,Renneval,2,,,02641000ZD0046,,,,,,,,,,,,,0,,,,,BT,taillis simples,,,4120.0,4.027241,49.732684
374,2017-14825,2017-03-24,1,Vente,90000.0,9.0,,RUE DU CHATEAU,15,2300.0,2750,Trosly-Loire,2,,,027500000A1028,,,,,,,,,,,,,0,1.0,Maison,135.0,7.0,S,sols,,,380.0,3.222707,49.51931
375,2017-14860,2017-03-22,1,Vente,9000.0,,,AU DESSUS DU CHEM DE PARFO,B006,2840.0,2791,Veslud,2,,,027910000D1152,,,,,,,,,,,,,0,,,,,BS,taillis sous futaie,,,204.0,3.725566,49.531005
376,2017-14897,2017-03-31,1,Vente,15000.0,1.0,,LA BONNE VOLONTE,B003,2190.0,2541,Neufchâtel-sur-Aisne,2,,,025410000B0077,,,,,,,,,,,,,0,1.0,Maison,55.0,2.0,S,sols,,,1090.0,4.043439,49.428655
377,2017-14960,2017-04-04,1,Vente,30000.0,,,JARDIN LECLERE,B057,2190.0,2013,Amifontaine,2,,,02013000AB0317,,,,,,,,,,,,,0,,,,,S,sols,,,443.0,3.92096,49.483968
378,2017-15005,2017-03-28,1,Vente,11065.19,,,LES HAUTS TORCHATS,B078,2860.0,2751,Trucy,2,,,027510000B0815,,,,,,,,,,,,,0,,,,,L,landes,,,370.0,3.605546,49.478435
379,2017-15046,2017-04-08,1,Vente,54000.0,,,RUE ROBERT LEROUX,2340,2000.0,2408,Laon,2,,,02408000BV0371,,,,,,,,,,,,,0,,,,,S,sols,,,327.0,3.596919,49.56843
380,2017-15102,2017-05-02,1,Vente,166350.0,7.0,,RUE DU SERGENT MOTTE,62,2190.0,2299,Évergnicourt,2,,,02299000ZB0081,,,,,,,,,,,,,0,1.0,Maison,108.0,5.0,S,sols,,,600.0,4.048329,49.449227
381,2017-15138,2017-04-28,1,Vente,104000.0,26.0,,RUE ARTHUR LACROIX,10,2300.0,2719,Sinceny,2,,,02719000AH0235,,,,,,,,,,,,,0,1.0,Maison,128.0,6.0,S,sols,,,606.0,3.248271,49.597511
382,2017-15191,2017-04-21,1,Adjudication,130000.0,40.0,,AV DE LA REPUBLIQUE,158,2300.0,2566,Ognes,2,,,02566000AH0083,,,,,,,,,,,,,0,1.0,Maison,80.0,4.0,S,sols,,,753.0,3.188143,49.611485
383,2017-15249,2017-05-12,1,Vente,9960.0,,,LA CROIX CERTIER,B011,2000.0,2407,Laniscourt,2,,,024070000B0100,,,,,,,,,,,,,0,,,,,PA,pâtures,,,3367.0,3.55129,49.549483
384,2017-15286,2017-05-22,1,Vente,4058.0,,,LE JEU DE BATTOIR,B038,2840.0,2697,Samoussy,2,,,02697000YD0001,,,,,,,,,,,,,0,,,,,T,terres,,,1352.0,3.774772,49.594949
385,2017-15333,2017-05-31,1,Vente,257000.0,9002.0,,RUE DU CHATEAU DE DERRIERE,18,2320.0,2153,Cessières-Suzy,2,2153.0,Cessières,02153000ZB0203,,,,,,,,,,,,,0,1.0,Maison,140.0,4.0,S,sols,,,861.0,3.496811,49.560711
386,2017-15386,2017-06-09,1,Vente,112000.0,24.0,,RUE DE MONTLOUE,50,2340.0,2723,Soize,2,,,027230000A0378,,,,,,,,,,,,,0,1.0,Maison,175.0,5.0,S,sols,,,974.0,4.08092,49.699264
387,2017-15431,2017-06-15,1,Vente,800.0,,,LE BOIS DU PONT,B021,2860.0,2128,Bruyères-et-Montbérault,2,,,021280000A0063,,,,,,,,,,,,,0,,,,,BS,taillis sous futaie,,,504.0,3.674939,49.547423
388,2017-15476,2017-06-19,1,Vente,644.0,,,LES BURJAINS,B033,2820.0,2498,Montaigu,2,,,024980000G0598,,,,,,,,,,,,,0,,,,,T,terres,,,92.0,3.833396,49.53274
389,2017-15531,2017-07-01,1,Vente,65000.0,7.0,,RUE D'ARGUESSE,2095,2700.0,2738,Tergnier,2,,,02738630AD0166,,,,,,,,,,,,,0,1.0,Maison,91.0,3.0,S,sols,,,241.0,3.300111,49.67488
390,2017-15560,2017-06-23,1,Vente,152500.0,13.0,,RUE ROGER SALENGRO,93,2000.0,2157,Chambry,2,,,02157000AA0171,,,,,,,,,,,,,0,,,,,S,sols,,,8.0,3.656256,49.594968
391,2017-15597,2017-06-28,1,Vente,60000.0,,,LE FOND DE ROVA,B018,2870.0,2329,Fourdrain,2,,,023290000C0259,,,,,,,,,,,,,0,,,,,BS,taillis sous futaie,,,760.0,3.459627,49.611289
392,2017-15643,2017-07-03,1,Vente,93000.0,10.0,,RUE DES ETUVES,40,2860.0,2128,Bruyères-et-Montbérault,2,,,021280000C2552,,,,,,,,,,,,,0,1.0,Maison,68.0,4.0,S,sols,,,307.0,3.666501,49.523565
393,2017-15695,2017-07-07,1,Vente,35000.0,3.0,,RUE DE L EGLISE,20,2840.0,2697,Samoussy,2,,,02697000AB0261,,,,,,,,,,,,,0,,,,,PA,pâtures,,,220.0,3.734257,49.584206
394,2017-15742,2017-07-07,1,Vente,600.0,,,DERRIERE LES VIGNES,B032,2270.0,2617,Pouilly-sur-Serre,2,,,02617000ZR0003,,,,,,,,,,,,,0,,,,,J,jardins,,,284.0,3.592106,49.682015
395,2017-15784,2017-07-03,1,Vente,162000.0,,,LE VILLAGE,B075,2320.0,2111,Brancourt-en-Laonnois,2,,,021110000C1209,,,,,,,,,,,,,0,,,,,S,sols,,,65.0,3.418194,49.514899
396,2017-15838,2017-07-26,1,Vente,190000.0,3.0,,RUE DE LA RETOURNE,54,2190.0,2541,Neufchâtel-sur-Aisne,2,,,025410000B0344,,,,,,,,,,,,,0,1.0,Maison,140.0,7.0,S,sols,,,875.0,4.034187,49.43062
397,2017-15887,2017-07-21,1,Vente,95000.0,52.0,,RUE HOCHE,2680,2700.0,2738,Tergnier,2,,,02738000AM0881,,,,,,,,,,,,,0,,,,,S,sols,,,6.0,3.294134,49.650053
398,2017-15919,2017-07-25,1,Vente,10000.0,,,LES BLANCHES VIGNES,B004,2860.0,2508,Monthenault,2,,,02508000AC0221,,,,,,,,,,,,,0,,,,,BT,taillis simples,,,307.0,3.661249,49.489281
399,2017-15967,2017-08-08,1,Vente,7000.0,,,LE CHATEAU,B009,2320.0,2153,Cessières-Suzy,2,2733.0,Suzy,02153733AB0004,02733000AB0004,,,,,,,,,,,,0,,,,,BP,peupleraies,,,14435.0,3.468251,49.556183
400,2017-16012,2017-08-18,1,Vente,192000.0,63.0,T,CHS BRUNEHAUT,16,2700.0,2212,Condren,2,,,02212000AD0215,,,,,,,,,,,,,0,1.0,Maison,111.0,5.0,S,sols,,,1000.0,3.280396,49.644918
401,2017-16060,2017-09-01,1,Vente,165000.0,6.0,,RUE DU CHANGE,400,2000.0,2408,Laon,2,,,02408000AC0016,,,,,,,,,,,,,0,4.0,Local industriel. commercial ou assimilé,76.0,0.0,S,sols,,,121.0,3.623233,49.5647
402,2017-16095,2017-08-28,4,Vente,95000.0,1.0,,CHE DE LA BEAURIVOISE,6,2160.0,2453,Maizy,2,,,024530000B1106,,,,,,,,,,,,,0,1.0,Maison,80.0,3.0,,,,,,3.722186,49.380983
403,2017-16142,2017-09-06,1,Vente,2900.0,,,LES BRUYERES,B016,2300.0,2686,Saint-Paul-aux-Bois,2,,,02686000ZM0044,,,,,,,,,,,,,0,,,,,T,terres,,,5200.0,3.184174,49.538213
404,2017-16198,2017-09-05,1,Vente,40000.0,,,LES TONNELETS,B138,2860.0,2128,Bruyères-et-Montbérault,2,,,021280000B1984,,,,,,,,,,,,,0,,,,,AG,terrains d'agrément,,,140.0,3.675415,49.524405
405,2017-16242,2017-08-29,1,Vente,140000.0,16.0,,RUE DU MARAIQUIEZ,2950,2700.0,2738,Tergnier,2,,,02738300AB0534,,,,,,,,,,,,,0,,,,,PA,pâtures,,,37.0,3.30899,49.656134
406,2017-16287,2017-09-16,1,Vente,80000.0,48.0,,RUE DES CAILLOUX,2210,2700.0,2738,Tergnier,2,,,02738630AH0449,,,,,,,,,,,,,0,1.0,Maison,86.0,5.0,S,sols,,,298.0,3.299916,49.668478
407,2017-16336,2017-09-26,1,Vente,13894.0,,,MONT DE FLEAU,B095,2160.0,2778,Vendresse-Beaulne,2,,,027780000A0378,,,,,,,,,,,,,0,,,,,BT,taillis simples,,,230.0,3.677333,49.428336
408,2017-16376,2017-10-06,1,Vente,32000.0,,,LES CARRIERES,B005,2190.0,2541,Neufchâtel-sur-Aisne,2,,,025410000A0377,,,,,,,,,,,,,0,,,,,J,jardins,,,132.0,4.027459,49.429259
409,2017-16421,2017-10-13,2,Vente,11931.0,,,LE VILLAGE,B039,2800.0,2788,Versigny,2,,,02788000AB0209,,,,,,,,,,,,,0,,,,,J,jardins,,,557.0,3.435983,49.655678
410,2017-16463,2017-09-27,3,Vente,160000.0,,,LES COQUEREAUX,B016,2000.0,2497,Mons-en-Laonnois,2,,,02497000AE0564,,,,,,,,,,,,,0,,,,,J,jardins,,,53.0,3.556167,49.53423
411,2017-16514,2017-10-30,1,Vente,189900.0,44.0,,RUE DU BEFFROI,9,2870.0,2238,Crépy,2,,,02238000ZD0273,,,,,,,,,,,,,0,1.0,Maison,123.0,5.0,S,sols,,,1005.0,3.518748,49.605331
412,2017-16547,2017-10-30,1,Vente,227180.0,8.0,,PL DU BROUAGE,200,2300.0,2173,Chauny,2,,,02173000AK0190,,,,,,,,,,,,,0,2.0,Appartement,22.0,1.0,S,sols,,,155.0,3.214322,49.614838
413,2017-16600,2017-11-10,1,Vente,400.0,,,LES CARREAUX,B037,2820.0,2498,Montaigu,2,,,02498000ZW0015,,,,,,,,,,,,,0,,,,,T,terres,,,156.0,3.836652,49.539188
414,2017-16645,2017-10-27,1,Vente,257920.0,,,LES CARRIERES,B005,2190.0,2541,Neufchâtel-sur-Aisne,2,,,025410000A0226,,,,,,,,,,,,,0,,,,,BR,futaies résineuses,SAPIN,Sapins ou sapinière,2019.0,4.026908,49.428807
415,2017-16696,2017-11-23,1,Vente,106000.0,72.0,,RUE DE L ECORCHOIR,780,2000.0,2408,Laon,2,,,02408000CK0078,,,,,,,,,,,,,0,1.0,Maison,82.0,5.0,S,sols,,,529.0,3.639143,49.575439
416,2017-16735,2017-11-14,3,Echange,100.0,,,LE VILLAGE,B102,2160.0,2531,Moussy-Verneuil,2,,,025310000C0598,,,,,,,,,,,,,0,,,,,L,landes,,,11.0,3.628905,49.41717
417,2017-16784,2017-11-17,1,Vente,275000.0,,,LE BAS DE LA JUSTICE,B001,2300.0,2173,Chauny,2,,,02173000AZ0210,,,,,,,,,,,,,0,,,,,J,jardins,,,489.0,3.212417,49.624947
418,2017-16827,2017-11-27,1,Vente,83000.0,10.0,,RUE ARSENE HOUSSAYE,5,2860.0,2128,Bruyères-et-Montbérault,2,,,021280000C0707,,,,,,,,,,,,,0,1.0,Maison,63.0,3.0,S,sols,,,110.0,3.662741,49.524877
419,2017-16875,2017-12-15,2,Vente,200.0,,,LE VILLAGE,B035,2270.0,2727,Sons-et-Ronchères,2,,,02727000AB0432,,,,,,,,,,,,,0,,,,,S,sols,,,93.0,3.673033,49.762736
420,2017-16915,2017-12-13,1,Vente,40000.0,,,LE VILLAGE,B107,2250.0,2827,Voyenne,2,,,02827000AB0297,,,,,,,,,,,,,0,,,,,S,sols,,,68.0,3.729336,49.722878
421,2017-16958,2017-12-15,1,Vente,102000.0,,,AU DESSUS DU PRESBYTERE,B004,2860.0,2471,Martigny-Courpierre,2,,,024710000A0286,,,,,,,,,,,,,0,,,,,L,landes,,,171.0,3.679438,49.49138
422,2017-17001,2017-12-26,2,Vente,4940.0,,,LA HAUTE BORNE,B054,2300.0,2686,Saint-Paul-aux-Bois,2,,,02686000ZP0026,,,,,,,,,,,,,0,,,,,T,terres,,,3490.0,3.196665,49.546488
423,2017-17044,2017-12-19,1,Vente,44100.0,,,RTE DE JUVINCOURT,89,2190.0,2360,Villeneuve-sur-Aisne,2,2360.0,Guignicourt,02360000ZD0090,,,,,,,,,,,,,0,,,,,J,jardins,,,421.0,3.956043,49.435016
424,2017-17084,2017-12-29,1,Vente,120000.0,1.0,,IMP GEORGES MALEZIEUX,30,2250.0,2742,Thiernu,2,,,02742000AB0190,,,,,,,,,,,,,0,1.0,Maison,121.0,4.0,S,sols,,,6561.0,3.791816,49.761028
425,2017-17117,2017-12-28,1,Vente,280000.0,,,LE POTEAU,B111,2340.0,2160,Chaourse,2,,,021600000C0184,,,,,,,,,,,,,0,,,,,PA,pâtures,,,778.0,4.008151,49.696517
426,2017-17134,2017-12-28,1,Vente,145000.0,3.0,B,BD DE LYON,1640,2000.0,2408,Laon,2,,,02408000AP0065,,,204,,215.0,,,,,,,,2,4.0,Local industriel. commercial ou assimilé,168.0,0.0,,,,,,3.625326,49.569934
427,2017-17191,2017-01-12,1,Vente,93000.0,42.0,,RUE JEAN JAURES,3070,2100.0,2691,Saint-Quentin,2,,,02691000AM0594,,,,,,,,,,,,,0,2.0,Appartement,20.0,1.0,S,sols,,,114.0,3.28086,49.84673
428,2017-17245,2017-02-06,1,Vente,135000.0,4.0,,RUE LOUISE MICHEL,3612,2100.0,2691,Saint-Quentin,2,,,02691000BP0404,,,,,,,,,,,,,0,1.0,Maison,88.0,5.0,S,sols,,,233.0,3.306648,49.85565
429,2017-17302,2017-02-16,1,Vente,82000.0,5001.0,,RUE DU RISQUONS TOUT,45,2110.0,2293,Étaves-et-Bocquiaux,2,,,022930000B0977,,,,,,,,,,,,,0,3.0,Dépendance,,0.0,J,jardins,,,167.0,3.452535,49.937369
430,2017-17363,2017-02-13,1,Vente,145000.0,5001.0,,RUE DE LA HAUT,36,2480.0,2246,Cugny,2,,,02246000ZD0009,,,,,,,,,,,,,0,1.0,Maison,130.0,6.0,J,jardins,,,1578.0,3.16559,49.697543
431,2017-17411,2017-03-04,1,Vente,75000.0,21.0,,RPE SAINT PRIX,5094,2100.0,2691,Saint-Quentin,2,,,02691000CM0510,,,,,,,,,,,,,0,4.0,Local industriel. commercial ou assimilé,83.0,0.0,S,sols,,,272.0,3.276643,49.839426
432,2017-17461,2017-03-13,1,Vente,25000.0,,,L EPINOIS NORD,B025,2110.0,2293,Étaves-et-Bocquiaux,2,,,022930000B0947,,,,,,,,,,,,,0,,,,,J,jardins,,,323.0,3.459252,49.940014
433,2017-17510,2017-03-24,1,Vente,55000.0,,,RUE DE LA GRENOUILLERE,62,2790.0,2710,Seraucourt-le-Grand,2,,,02710000AC0294,,,,,,,,,,,,,0,,,,,S,sols,,,71.0,3.210724,49.778156
434,2017-17563,2017-04-06,1,Vente,1.0,,,LA VOIE DE FRESNOY,B117,2110.0,2095,Bohain-en-Vermandois,2,,,020950000W0251,,,,,,,,,,,,,0,,,,,S,sols,,,503.0,3.447034,49.976171
435,2017-17615,2017-04-12,1,Vente,91500.0,,,AU PETIT PRE,B075,2480.0,2397,Jussy,2,,,023970000B1665,,,,,,,,,,,,,0,,,,,L,landes,,,95.0,3.233376,49.721946
436,2017-17664,2017-04-15,1,Vente,75000.0,1.0,,RUE ARTHUR MACAIGNE,5,2110.0,2500,Montbrehain,2,,,025000000A1441,,,,,,,,,,,,,0,1.0,Maison,72.0,4.0,S,sols,,,577.0,3.347626,49.967831
437,2017-17714,2017-04-21,1,Vente,56700.0,19.0,,RUE PIERRE EMILE ROUX,4510,2100.0,2691,Saint-Quentin,2,,,02691000CH0194,,,,,,,,,,,,,0,1.0,Maison,88.0,5.0,S,sols,,,194.0,3.295166,49.834508
438,2017-17771,2017-05-12,1,Vente,84900.0,,,LE VILLAGE,B139,2110.0,2057,Beaurevoir,2,,,020570000C1178,,,,,,,,,,,,,0,,,,,J,jardins,,,395.0,3.307561,50.000388
439,2017-17822,2017-05-10,2,Vente,40000.0,,,RUE DUFOUR,28,2110.0,2500,Montbrehain,2,,,025000000A1762,,,,,,,,,,,,,0,,,,,S,sols,,,83.0,3.353752,49.966802
440,2017-17881,2017-05-13,1,Vente,52000.0,5.0,,RUE LOISEAU,3560,2100.0,2691,Saint-Quentin,2,,,02691000BV0205,,,,,,,,,,,,,0,2.0,Appartement,49.0,2.0,S,sols,,,91.0,3.306416,49.836638
441,2017-17935,2017-06-16,1,Vente,27300.0,,,LE VILLAGE,B056,2680.0,2142,Castres,2,,,021420000B0898,,,,,,,,,,,,,0,,,,,J,jardins,,,694.0,3.238322,49.802547
442,2017-17986,2017-06-09,1,Vente,135800.0,5001.0,,RTE DE GUISE,50,2100.0,2371,Harly,2,,,02371000ZC0046,,,,,,,,,,,,,0,1.0,Maison,70.0,4.0,S,sols,,,10518.0,3.348244,49.844757
443,2017-18020,2017-06-08,1,Vente,208400.0,,,LE VILLAGE,B178,2490.0,2785,Vermand,2,,,027850000C0758,,,,,,,,,,,,,0,,,,,AG,terrains d'agrément,,,155.0,3.151701,49.875211
444,2017-18069,2017-06-17,1,Vente,195000.0,,,LE HAUT DU VILLAGE,B016,2680.0,2359,Grugies,2,,,02359000AB0285,,,,,,,,,,,,,0,,,,,S,sols,,,148.0,3.268655,49.8124
445,2017-18095,2017-06-16,4,Vente,19500.0,,,LE VILLAGE,B012,2480.0,2117,Bray-Saint-Christophe,2,,,021170000A0527,,,,,,,,,,,,,0,,,,,T,terres,,,1138.0,3.142328,49.771188
446,2017-18148,2017-06-30,1,Vente,2747000.0,22.0,,RUE VARLET,5500,2100.0,2691,Saint-Quentin,2,,,02691000AS0127,,,,,,,,,,,,,0,4.0,Local industriel. commercial ou assimilé,1671.0,0.0,S,sols,,,1146.0,3.28831,49.852276
447,2017-18180,2017-07-21,1,Vente,120000.0,,,LE VILLAGE,B068,2490.0,2029,Attilly,2,,,020290000A0504,,,,,,,,,,,,,0,,,,,S,sols,,,266.0,3.169214,49.856044
448,2017-18233,2017-07-08,1,Vente,145000.0,1.0,,RUE DE VILLESELVE,60,2480.0,2246,Cugny,2,,,022460000A0977,,,,,,,,,,,,,0,1.0,Maison,119.0,5.0,S,sols,,,100.0,3.156106,49.709248
449,2017-18283,2017-07-25,1,Vente,1040.0,,,LE ROMARY,B044,2610.0,2532,Moÿ-de-l'Aisne,2,,,025320000D0087,,,,,,,,,,,,,0,,,,,BP,peupleraies,,,1888.0,3.359998,49.74456
450,2017-18349,2017-07-06,1,Vente,49171.85,,,LE CHEMIN DES BOURRIQUES,B016,2110.0,2618,Prémont,2,,,02618000ZM0024,,,,,,,,,,,,,0,,,,,T,terres,,,37824.0,3.401657,50.026246
451,2017-18397,2017-08-03,1,Vente en l'état futur d'achèvement,155617.0,108.0,B,AV DE LA REPUBLIQUE,4840,2100.0,2691,Saint-Quentin,2,,,02691000BO0117,,,285,,,,,,,,,,1,,,,,,,,,,3.306726,49.859701
452,2017-18449,2017-08-16,1,Vente,15000.0,,,LE VILLAGE,B023,2490.0,2774,Vendelles,2,,,027740000A0290,,,,,,,,,,,,,0,,,,,J,jardins,,,880.0,3.132593,49.909873
453,2017-18495,2017-08-31,3,Vente,,,,BECQUIGNETTE,B001,2110.0,2061,Becquigny,2,,,020610000B0171,,,,,,,,,,,,,0,,,,,CH,chemin de fer,FER,Chemin de fer,5758.0,3.455803,50.022125
454,2017-18540,2017-09-09,1,Vente,177000.0,28.0,,RUE LIGNIERES,3530,2100.0,2691,Saint-Quentin,2,,,02691000AC0284,,,,,,,,,,,,,0,,,,,S,sols,,,14.0,3.293708,49.847005
455,2017-18597,2017-09-07,1,Vente,64000.0,4.0,,RUE DE NOIRMONT,4130,2100.0,2691,Saint-Quentin,2,,,02691000CZ0380,,,,,,,,,,,,,0,1.0,Maison,97.0,7.0,S,sols,,,69.0,3.271881,49.850485
456,2017-18649,2017-09-26,1,Vente,51600.0,95.0,,RUE PIERRE BROSSOLETTE,4470,2100.0,2691,Saint-Quentin,2,,,02691000AM0457,,,,,,,,,,,,,0,3.0,Dépendance,,0.0,S,sols,,,353.0,3.280194,49.847256
457,2017-18704,2017-09-27,1,Vente,160000.0,10.0,,PL DUFOUR DENELLE,1850,2100.0,2691,Saint-Quentin,2,,,02691000AL0102,,,,,,,,,,,,,0,2.0,Appartement,35.0,2.0,S,sols,,,151.0,3.279209,49.843467
458,2017-18750,2017-10-04,1,Vente,1.0,,,CHEMIN DE GRICOURT,B017,2100.0,2691,Saint-Quentin,2,,,02691000ZI0259,,,,,,,,,,,,,0,,,,,S,sols,,,27.0,3.267632,49.865681
459,2017-18769,2017-10-20,1,Vente,1.0,6.0,,RUE BERTHELOT,570,2100.0,2691,Saint-Quentin,2,,,02691000BI0163,,,,,,,,,,,,,0,1.0,Maison,94.0,7.0,S,sols,,,300.0,3.280013,49.853934
460,2017-18804,2017-11-03,1,Vente,95000.0,48.0,,RUE D EN HAUT,23,2110.0,2112,Brancourt-le-Grand,2,,,021120000D0638,,,,,,,,,,,,,0,1.0,Maison,135.0,5.0,S,sols,,,750.0,3.374823,49.972571
461,2017-18869,2017-10-27,1,Vente,65000.0,,,LA CITE DAVID ET MAIGRET,B025,2100.0,2691,Saint-Quentin,2,,,02691000DE0276,,,,,,,,,,,,,0,,,,,S,sols,,,67.0,3.272719,49.855366
462,2017-18924,2017-11-17,1,Vente,120000.0,23.0,,RUE DE OESTRES,48,2680.0,2257,Dallon,2,,,022570000B0556,,,,,,,,,,,,,0,4.0,Local industriel. commercial ou assimilé,105.0,0.0,S,sols,,,1105.0,3.244099,49.822205
463,2017-18965,2017-11-28,1,Vente en l'état futur d'achèvement,178800.0,108.0,B,AV DE LA REPUBLIQUE,4840,2100.0,2691,Saint-Quentin,2,,,02691000BO0117,,,95,,,,,,,,,,1,2.0,Appartement,44.0,2.0,,,,,,3.306726,49.859701
464,2017-19013,2017-12-05,1,Vente,62900.0,105.0,,RUE VOLTAIRE,5720,2100.0,2691,Saint-Quentin,2,,,02691000AE0239,,,12,,,,,,,,,,1,3.0,Dépendance,,0.0,,,,,,3.289807,49.841665
465,2017-19052,2017-12-09,1,Vente,136400.0,14.0,,RUE PAUL VAILLANT COUTURIER,250,2430.0,2340,Gauchy,2,,,02340000AI0090,,,,,,,,,,,,,0,1.0,Maison,77.0,5.0,S,sols,,,797.0,3.283773,49.829457
466,2017-19114,2017-12-16,1,Vente,160000.0,38.0,,RUE DE OESTRES,48,2680.0,2257,Dallon,2,,,022570000B0440,,,,,,,,,,,,,0,1.0,Maison,102.0,5.0,S,sols,,,564.0,3.247039,49.824058
467,2017-19158,2017-11-29,1,Vente,159500.0,8.0,,RUE DU SOUVENIR,56,2240.0,2483,Mézières-sur-Oise,2,,,024830000C0319,,,,,,,,,,,,,0,1.0,Maison,160.0,7.0,S,sols,,,369.0,3.398562,49.782257
468,2017-19174,2017-12-28,2,Vente,262200.0,42.0,,RUE DE LA POMME ROUGE,4600,2100.0,2691,Saint-Quentin,2,,,02691000AM0252,,,,,,,,,,,,,0,2.0,Appartement,40.0,3.0,S,sols,,,88.0,3.27804,49.847374
469,2017-19189,2017-12-29,1,Vente,92000.0,169.0,,RUE BENEZET,550,2100.0,2691,Saint-Quentin,2,,,02691000AY0533,,,,,,,,,,,,,0,1.0,Maison,75.0,4.0,S,sols,,,74.0,3.302162,49.849282
470,2017-19238,2017-01-04,1,Vente,10000.0,,,LE VILLAGE,B018,2200.0,2485,Missy-aux-Bois,2,,,024850000A0064,,,,,,,,,,,,,0,,,,,T,terres,,,440.0,3.253258,49.335516
471,2017-19272,2017-01-13,1,Vente,425000.0,,,LA GOUTTE D OR,B022,2130.0,2233,Cramaille,2,,,02233000ZD0006,,,,,,,,,,,,,0,,,,,P,prés,,,40740.0,3.428814,49.236012
472,2017-19312,2017-01-16,1,Vente,18000.0,,,AU DESSUS DE LA PERLE,B002,2200.0,2477,Mercin-et-Vaux,2,,,024770000C0765,,,,,,,,,,,,,0,,,,,T,terres,,,1118.0,3.268723,49.372898
473,2017-19321,2017-01-27,1,Vente,1360000.0,,,LES GAINS,B052,2200.0,2154,Chacrise,2,,,021540000D0150,,,,,,,,,,,,,0,,,,,BT,taillis simples,,,460.0,3.395994,49.301791
474,2017-19345,2017-02-03,1,Vente,9000.0,,,DESSOUS BRENY,B013,2210.0,2121,Breny,2,,,021210000A0342,,,,,,,,,,,,,0,,,,,J,jardins,,,515.0,3.348372,49.186497
475,2017-19363,2017-01-04,2,Vente,353200.0,,,LE MARAIS,B014,2200.0,2485,Missy-aux-Bois,2,,,024850000B0020,,,,,,,,,,,,,0,,,,,L,landes,,,2530.0,3.248481,49.341561
476,2017-19383,2017-02-03,1,Vente,120000.0,6.0,,ALL ARAMIS,48,2600.0,2810,Villers-Cotterêts,2,,,02810000AC0699,,,54,,,,,,,,,,1,3.0,Dépendance,,0.0,,,,,,3.088143,49.250001
477,2017-19438,2017-02-15,1,Vente,40000.0,,,NECVIN,B043,2220.0,2711,Serches,2,,,02711000ZA0027,,,,,,,,,,,,,0,,,,,T,terres,,,4535.0,3.449968,49.343556
478,2017-19468,2017-03-01,1,Vente,2700.0,,,LE GRAND JARDIN,B046,2220.0,2224,Courcelles-sur-Vesle,2,,,02224000ZO0123,,,,,,,,,,,,,0,,,,,J,jardins,,,306.0,3.570456,49.339537
479,2017-19514,2017-03-17,1,Vente,116000.0,8.0,,RUE DU 97E REGIMENT D INFANTER,180,2000.0,2174,Chavignon,2,,,02174000AA0036,,,,,,,,,,,,,0,1.0,Maison,94.0,5.0,S,sols,,,560.0,3.518512,49.480953
480,2017-19553,2017-04-11,1,Vente,150000.0,,,CHAMP LUISANT,B039,2880.0,2131,Bucy-le-Long,2,,,02131000ZL0226,,,6,,,,,,,,,,1,,,,,AG,terrains d'agrément,JARD,Jardin d'agrément,18691.0,3.399362,49.37837
481,2017-19598,2017-04-12,1,Vente,150700.0,30.0,,RUE DE POULANDON,55,2290.0,2643,Ressons-le-Long,2,,,026430000A0538,,,,,,,,,,,,,0,1.0,Maison,95.0,5.0,S,sols,,,419.0,3.140005,49.388096
482,2017-19650,2017-05-03,1,Vente,100000.0,,,LES GREVES,B027,2210.0,2372,Hartennes-et-Taux,2,,,023720000B0709,,,,,,,,,,,,,0,,,,,J,jardins,,,1493.0,3.347313,49.274466
483,2017-19700,2017-05-03,1,Vente,50000.0,,,AV DE LAON,1190,2200.0,2722,Soissons,2,,,02722000CD0202,,,,,,,,,,,,,0,,,,,AB,terrains a bâtir,,,440.0,3.345961,49.394172
484,2017-19748,2017-05-23,1,Vente,105000.0,,,ORVAL,B066,2290.0,2514,Montigny-Lengrain,2,,,02514000AI0084,,,,,,,,,,,,,0,,,,,J,jardins,,,689.0,3.09079,49.373051
485,2017-19791,2017-05-31,1,Vente,140000.0,,,LE VILLAGE,B034,2600.0,2734,Taillefontaine,2,,,02734000AB0491,,,,,,,,,,,,,0,,,,,S,sols,,,13.0,3.042287,49.310739
486,2017-19834,2017-06-06,1,Vente,4000.0,,,LE PRE DE LA FALAISE,B054,2600.0,2441,Louâtre,2,,,02441000ZC0016,,,,,,,,,,,,,0,,,,,PA,pâtures,,,10550.0,3.253721,49.241151
487,2017-19877,2017-06-01,1,Vente,330000.0,31.0,,AV DE REIMS,1865,2200.0,2722,Soissons,2,,,02722000CL0038,,,,,,,,,,,,,0,2.0,Appartement,80.0,4.0,S,sols,,,90.0,3.337471,49.375004
488,2017-19921,2017-06-23,1,Vente,68000.0,70.0,,AV DE LAON,1190,2200.0,2722,Soissons,2,,,02722000BZ0382,,,457,,,,,,,,,,1,3.0,Dépendance,,0.0,,,,,,3.341145,49.389997
489,2017-19960,2017-07-06,1,Vente,188000.0,,,LES JARDINS DES RUELLES,B093,2290.0,2011,Ambleny,2,,,02011000AB0049,,,,,,,,,,,,,0,,,,,J,jardins,,,1188.0,3.185515,49.381657
490,2017-20003,2017-06-21,1,Vente,128000.0,3.0,,RUE DE LA MUZE,70,2130.0,2022,Arcy-Sainte-Restitue,2,,,02022000ZA0037,,,,,,,,,,,,,0,1.0,Maison,74.0,4.0,J,jardins,,,905.0,3.460045,49.254303
491,2017-20049,2017-07-18,1,Vente,33000.0,9001.0,,RUE PAUL DOUMER,150,2220.0,2110,Braine,2,,,021100000D0452,,,,,,,,,,,,,0,3.0,Dépendance,,0.0,S,sols,,,551.0,3.529969,49.341139
492,2017-20087,2017-06-30,1,Vente,377500.0,33.0,,RUE MOLIERE,1430,2200.0,2722,Soissons,2,,,02722000CN0083,,,,,,,,,,,,,0,1.0,Maison,148.0,6.0,S,sols,,,477.0,3.335789,49.373553
493,2017-20116,2017-07-29,1,Vente,690000.0,,,LA PETITE VALLEE,B039,2200.0,2663,Rozières-sur-Crise,2,,,026630000B0003,,,,,,,,,,,,,0,,,,,BF,futaies feuillues,,,10000.0,3.377171,49.323351
494,2017-20155,2017-08-03,1,Vente,87000.0,5.0,,RUE DU PRE,9,2290.0,2277,Épagny,2,,,02277000AB0241,,,,,,,,,,,,,0,3.0,Dépendance,,0.0,J,jardins,,,500.0,3.241781,49.459536
495,2017-20206,2017-08-01,2,Vente,130000.0,10.0,,RUE DE LA CARLETTE,25,2370.0,2167,Chassemy,2,,,02167000AB0666,,,,,,,,,,,,,0,1.0,Maison,82.0,3.0,S,sols,,,884.0,3.506496,49.383157
496,2017-20253,2017-08-25,1,Echange,876.0,,,LA MONTAGNE,B072,2200.0,2089,Billy-sur-Aisne,2,,,020890000B0112,,,,,,,,,,,,,0,,,,,BS,taillis sous futaie,,,787.0,3.370624,49.357163
497,2017-20279,2017-08-31,1,Vente,78000.0,,,RUE SAINT PIERRE,B108,2000.0,2174,Chavignon,2,,,02174000AB0242,,,,,,,,,,,,,0,,,,,S,sols,,,335.0,3.523401,49.476167
498,2017-20323,2017-09-08,1,Vente,135000.0,14.0,,AV DE BARLEMONT,75,2600.0,2810,Villers-Cotterêts,2,,,02810000BL0065,,,,,,,,,,,,,0,1.0,Maison,94.0,5.0,S,sols,,,501.0,3.079052,49.242062
499,2017-20362,2017-09-07,1,Vente,5000.0,,,LA FONTAINE D ACQUIN,B053,2220.0,2110,Braine,2,,,021100000D2176,,,,,,,,,,,,,0,,,,,S,sols,,,317.0,3.525491,49.335505
500,2017-20411,2017-09-14,1,Vente,190000.0,61.0,,BD JEANNE D ARC,1130,2200.0,2722,Soissons,2,,,02722000AS0037,,,,,,,,,,,,,0,4.0,Local industriel. commercial ou assimilé,64.0,0.0,AG,terrains d'agrément,,,400.0,3.32736,49.374903
501,2017-20452,2017-10-10,1,Vente,50000.0,18.0,,RUE DE LYON,225,2370.0,2758,Vailly-sur-Aisne,2,,,02758000AA0098,,,,,,,,,,,,,0,1.0,Maison,70.0,4.0,S,sols,,,149.0,3.518888,49.409935
502,2017-20493,2017-09-30,1,Vente,81000.0,31.0,,RUE DE COURTY MONTIER,24,2880.0,2739,Terny-Sorny,2,,,027390000B0267,,,,,,,,,,,,,0,1.0,Maison,70.0,4.0,S,sols,,,640.0,3.363636,49.446619
503,2017-20535,2017-10-14,1,Vente,86000.0,,,LA GRANDE PIECE,B024,2200.0,2663,Rozières-sur-Crise,2,,,026630000A0320,,,,,,,,,,,,,0,,,,,T,terres,,,3676.0,3.344319,49.326055
504,2017-20570,2017-10-31,1,Vente,90000.0,1.0,,RUE BROYON,30,2880.0,2131,Bucy-le-Long,2,,,02131000AC0102,,,,,,,,,,,,,0,1.0,Maison,80.0,4.0,J,jardins,,,1263.0,3.401012,49.389929
505,2017-20610,2017-11-08,1,Vente,23500.0,,,LE CLOS LIONNAIS,B025,2200.0,2226,Courmelles,2,,,02226000ZC0034,,,,,,,,,,,,,0,,,,,BT,taillis simples,,,1130.0,3.307928,49.34638
506,2017-20653,2017-11-27,1,Vente terrain à bâtir,55200.0,,,LES GROSSES VIGNES,B036,2200.0,2610,Pommiers,2,,,02610000ZH0413,,,,,,,,,,,,,0,,,,,AB,terrains a bâtir,,,639.0,3.269421,49.392134
507,2017-20677,2017-12-07,1,Vente,850.0,,,LA COTE DE CHAPELAIN,B024,2290.0,2514,Montigny-Lengrain,2,,,02514000ZB0026,,,,,,,,,,,,,0,,,,,P,prés,,,1580.0,3.100876,49.387244
508,2017-20719,2017-11-20,1,Vente,271000.0,211.0,,AV DE REIMS,209,2200.0,2805,Villeneuve-Saint-Germain,2,,,028050000B0898,,,52,,,,,,,,,,1,3.0,Dépendance,,0.0,,,,,,3.34037,49.37427
509,2017-20752,2017-12-11,1,Vente,3300.0,,,LE VILLAGE,B066,2370.0,2176,Chavonne,2,,,021760000B0923,,,,,,,,,,,,,0,,,,,J,jardins,,,187.0,3.569198,49.404916
510,2017-20775,2017-12-15,1,Vente,286000.0,,,IMP DES SEQUOIAS,2144,2200.0,2722,Soissons,2,,,02722000BO0656,,,,,,,,,,,,,0,,,,,S,sols,,,104.0,3.315049,49.3823
511,2017-20811,2017-12-27,1,Vente,308500.0,38.0,,AV DE REIMS,1865,2200.0,2722,Soissons,2,,,02722000CN0005,,,,,,,,,,,,,0,2.0,Appartement,28.0,2.0,S,sols,,,493.0,3.335307,49.3751
512,2017-20848,2017-12-29,1,Vente,100000.0,31.0,,AV DE COMPIEGNE,550,2200.0,2722,Soissons,2,,,02722000BK0184,,,16,80.52,31.0,,,,,,,,2,2.0,Appartement,80.0,3.0,,,,,,3.313917,49.381213
513,2017-20876,2017-08-04,1,Vente,170000.0,3.0,B,RUE DES GRANDES ALLEES,300,2600.0,2810,Villers-Cotterêts,2,,,02810000AK0250,,,,,,,,,,,,,0,3.0,Dépendance,,0.0,S,sols,,,350.0,3.096839,49.256998
514,2017-20897,2017-08-01,1,Vente,3000.0,,,LA BOISE,B013,2160.0,2797,Viel-Arcy,2,,,02797000ZC0116,,,,,,,,,,,,,0,,,,,E,eaux,,,1000.0,3.632497,49.384679
515,2017-20938,2017-01-30,2,Vente,136800.0,,,L EGLISE,B048,2110.0,2769,Vaux-Andigny,2,,,02769000AC0152,,,,,,,,,,,,,0,,,,,J,jardins,,,276.0,3.515302,50.024638
516,2017-20982,2017-02-01,1,Vente,150000.0,13.0,,RUE DU GENERAL DE GAULLE,42,2500.0,2495,Mondrepuis,2,,,02495000AB0235,,,,,,,,,,,,,0,1.0,Maison,84.0,3.0,J,jardins,,,706.0,4.049655,49.96135
517,2017-21026,2017-03-03,1,Vente,132500.0,,,LA PLACE CAPLAIN,B097,2620.0,2135,Buironfosse,2,,,021350000D0128,,,,,,,,,,,,,0,,,,,PA,pâtures,,,4850.0,3.839327,49.94445
518,2017-21063,2017-03-03,1,Vente,80000.0,,,LA CITE DE BUIRE,B009,2500.0,2134,Buire,2,,,021340000A1128,,,,,,,,,,,,,0,,,,,S,sols,,,308.0,4.063065,49.91202
519,2017-21101,2017-03-27,1,Vente,70000.0,,,LE VILLAGE,B064,2170.0,2286,Esquéhéries,2,,,02286000AB0081,,,,,,,,,,,,,0,,,,,J,jardins,,,700.0,3.741818,49.984929
520,2017-21154,2017-04-06,1,Vente,70000.0,2.0,,RUE NICOLAS GRAIN,85,2120.0,2757,Vadencourt,2,,,027570000B0563,,,,,,,,,,,,,0,1.0,Maison,115.0,4.0,S,sols,,,948.0,3.576335,49.929193
521,2017-21184,2017-04-13,3,Echange,150.0,,,LE PONT A L ECU,B084,2500.0,2470,Martigny,2,,,02470000ZS0103,,,,,,,,,,,,,0,,,,,J,jardins,,,158.0,4.105922,49.858228
522,2017-21222,2017-04-14,1,Vente,90000.0,5.0,,RUE DU DOCTEUR JOSSO,114,2500.0,2031,Aubenton,2,,,020310000B0729,,,,,,,,,,,,,0,1.0,Maison,110.0,3.0,S,sols,,,438.0,4.203093,49.837721
523,2017-21253,2017-04-27,1,Vente,22641.0,,,LE MOULIN DU PETIT BOIS,B072,2260.0,2312,La Flamengrie,2,,,02312000BD0112,,,,,,,,,,,,,0,,,,,PA,pâtures,,,6442.0,3.956857,49.9964
524,2017-21291,2017-05-11,1,Vente,115000.0,78.0,B,RUE CHARLES DE GAULLE,234,2500.0,2381,Hirson,2,,,02381000AH0162,,,,,,,,,,,,,0,,,,,S,sols,,,55.0,4.083929,49.920318
525,2017-21338,2017-06-19,1,Vente,70000.0,3.0,,RUE DE RICAMBOURG,104,2120.0,2450,Macquigny,2,,,024500000A0338,,,,,,,,,,,,,0,1.0,Maison,90.0,4.0,S,sols,,,1525.0,3.552857,49.886419
526,2017-21373,2017-06-27,2,Vente,42000.0,,,LES PRES DES PAUVRES,B048,2510.0,2298,Étreux,2,,,02298000AH0450,,,,,,,,,,,,,0,,,,,PA,pâtures,,,11877.0,3.685009,50.003871
527,2017-21411,2017-06-28,1,Vente,50000.0,,,LA HAUTE FAMAINE,B072,2140.0,2109,La Bouteille,2,,,02109000ZS0022,,,,,,,,,,,,,0,,,,,PA,pâtures,,,34100.0,3.964298,49.880147
528,2017-21444,2017-07-18,1,Vente,140000.0,,,LE VILLAGE,B060,2170.0,2419,Leschelle,2,,,024190000A0184,,,,,,,,,,,,,0,,,,,PA,pâtures,,,128.0,3.769389,49.959358
529,2017-21476,2017-07-21,1,Vente,90000.0,58.0,,RUE DE LA GARE,55,2510.0,2298,Étreux,2,,,02298000AD0450,,,,,,,,,,,,,0,1.0,Maison,90.0,4.0,S,sols,,,815.0,3.658662,49.996793
530,2017-21515,2017-07-13,1,Vente,13000.0,,,LES PATURES DU BLOCKAUS,B020,2260.0,2342,Gergny,2,,,02342000AH0090,,,,,,,,,,,,,0,,,,,BT,taillis simples,,,6530.0,3.934319,49.936652
531,2017-21539,2017-08-21,1,Vente,70000.0,,,LA RUE DE MARLE,B080,2120.0,2668,Sains-Richaumont,2,,,02668000AB0313,,,,,,,,,,,,,0,,,,,PA,pâtures,,,1024.0,3.705633,49.820451
532,2017-21577,2017-09-05,1,Vente,55000.0,11.0,B,RUE DE GUISE,110,2140.0,2789,Vervins,2,,,02789000AB0482,,,,,,,,,,,,,0,1.0,Maison,69.0,3.0,S,sols,,,279.0,3.896835,49.831565
533,2017-21615,2017-08-31,1,Vente,13040.0,,,LES BERCEAUX,B006,2510.0,2298,Étreux,2,,,02298000AD0556,,,,,,,,,,,,,0,,,,,AB,terrains a bâtir,,,652.0,3.660919,49.991468
534,2017-21640,2017-09-05,1,Vente,40500.0,,,FAUBOURG DE VILLERS,B029,2120.0,2361,Guise,2,,,02361000AH0631,,,,,,,,,,,,,0,,,,,J,jardins,POTAG,Jardin potager,155.0,3.631613,49.901256
535,2017-21681,2017-09-12,1,Vente,89000.0,5.0,,RUE PRINCIPALE,56,2140.0,2377,Haution,2,,,02377000AB0075,,,,,,,,,,,,,0,1.0,Maison,80.0,3.0,S,sols,,,610.0,3.839148,49.867724
536,2017-21722,2017-10-06,1,Vente,55000.0,2.0,,HAM DE LA TOUR GENOT,X050,2500.0,2079,Besmont,2,,,020790000A0234,,,,,,,,,,,,,0,1.0,Maison,60.0,2.0,S,sols,,,405.0,4.122258,49.825707
537,2017-21754,2017-10-19,1,Vente,130000.0,,,BUIRE FONTAINE,B017,2500.0,2031,Aubenton,2,,,02031000ZR0059,,,,,,,,,,,,,0,,,,,BP,peupleraies,,,138783.0,4.197201,49.843372
538,2017-21781,2017-10-31,1,Vente,150000.0,31.0,,RUE DU 4 SEPTEMBRE,870,2500.0,2381,Hirson,2,,,02381000AM0375,,,,,,,,,,,,,0,2.0,Appartement,50.0,2.0,J,jardins,,,122.0,4.076297,49.921988
539,2017-21809,2017-11-06,1,Vente,32288.0,,,GORGE DE LA CROIX,B076,2500.0,2031,Aubenton,2,,,02031000ZP0021,,,,,,,,,,,,,0,,,,,PA,pâtures,,,63422.0,4.188257,49.831119
540,2017-21849,2017-11-28,2,Vente,40000.0,,,LE TOURNIQUET,B156,2140.0,2391,Jeantes,2,,,02391000ZH0049,,,,,,,,,,,,,0,,,,,PA,pâtures,,,2828.0,4.063935,49.814594
541,2017-21891,2017-12-01,1,Vente,29890.0,,,BOUT DE LA GROSSE TETE,B008,2140.0,2789,Vervins,2,,,02789000AE0175,,,,,,,,,,,,,0,,,,,AB,terrains a bâtir,,,649.0,3.919746,49.835671
542,2017-21919,2017-12-11,1,Vente,27500.0,3.0,,RUE DE LONGANNE,98,2140.0,2608,Plomion,2,,,02608000AN0104,,,,,,,,,,,,,0,1.0,Maison,180.0,5.0,S,sols,,,447.0,4.01903,49.808151
543,2017-21966,2017-12-28,1,Vente,6500.0,,,LA REDOUTE,B050,2510.0,2298,Étreux,2,,,02298000ZB0022,,,,,,,,,,,,,0,,,,,PA,pâtures,,,5900.0,3.652898,50.001163
544,2017-22004,2017-01-12,1,Vente,3468.9,,,LA MONTAGNE D'HEURTEVILLE,B053,2810.0,2339,Gandelu,2,,,023390000C0008,,,,,,,,,,,,,0,,,,,BP,peupleraies,,,2454.0,3.201519,49.092676
545,2017-22039,2017-01-30,1,Vente,110000.0,26.0,,RUE DE L ABBE LATZ,5,2460.0,2718,Silly-la-Poterie,2,,,027180000A0269,,,,,,,,,,,,,0,1.0,Maison,61.0,3.0,J,jardins,,,853.0,3.14822,49.198456
546,2017-22075,2017-01-27,1,Vente,3405.0,,,AU DESSOUS DES BOISETS,B304,2330.0,2053,Vallées en Champagne,2,,,020536690Y0056,,,,,,,,,,,,,0,,,,,BT,taillis simples,,,539.0,3.592468,49.024098
547,2017-22124,2017-02-02,1,Vente,20000.0,26.0,,IMP DU VILLAGE,165,2310.0,2555,Nogent-l'Artaud,2,,,02555000AB0365,,,1,,4.0,,,,,,,,2,4.0,Local industriel. commercial ou assimilé,,0.0,,,,,,3.322124,48.965843
548,2017-22166,2017-02-08,1,Vente,150000.0,22.0,,IMP DE LA GARE,44,2540.0,2281,L'Épine-aux-Bois,2,,,022810000A0448,,,,,,,,,,,,,0,1.0,Maison,106.0,5.0,J,jardins,,,856.0,3.440832,48.895985
549,2017-22208,2017-02-24,1,Vente,210000.0,,,SUR LES MAISONS BERTHEMET,B005,2400.0,2042,Azy-sur-Marne,2,,,02042000AA0029,,,,,,,,,,,,,0,,,,,AG,terrains d'agrément,PARC,Parc,5002.0,3.363051,49.00186
550,2017-22251,2017-02-27,1,Vente,200400.0,,,LES MURS BLANCS,B069,2400.0,2347,Gland,2,,,02347000ZC0160,,,,,,,,,,,,,0,,,,,VI,vignes,VAOC,Vins d'appellation d'origine contrôlée,2839.0,3.464355,49.051698
551,2017-22294,2017-03-24,1,Vente,5000.0,,,LES USAGES,B068,2650.0,2239,Crézancy,2,,,022390000A0003,,,,,,,,,,,,,0,,,,,BS,taillis sous futaie,,,2080.0,3.533727,49.051881
552,2017-22326,2017-03-13,1,Vente,225000.0,37.0,,GR GRANDE RUE,55,2810.0,2125,Brumetz,2,,,021250000C0994,,,,,,,,,,,,,0,,,,,S,sols,,,566.0,3.153653,49.10245
553,2017-22352,2017-04-06,1,Vente,60000.0,5.0,,RTE DE FERE EN TARDENOIS,10,2850.0,2164,Le Charmel,2,,,02164000AC0169,,,,,,,,,,,,,0,1.0,Maison,191.0,7.0,S,sols,,,1026.0,3.547797,49.110423
554,2017-22385,2017-03-30,1,Vente,8849155.0,,,DOMAINE DE SOUILLARD,B008,2400.0,2297,Étrépilly,2,,,02297000ZI0017,,,,,,,,,,,,,0,,,,,S,sols,,,429.0,3.375784,49.082305
555,2017-22430,2017-04-27,1,Vente,78000.0,4.0,,RUE DES CROCHETS HAM DE CROGIS,121,2400.0,2290,Essômes-sur-Marne,2,,,02290000AC0023,,,12,,6.0,,8.0,,,,,,3,2.0,Appartement,65.0,3.0,,,,,,3.348237,49.02508
556,2017-22467,2017-05-04,1,Vente,3000.0,,,LA RUELLOTTE,B097,2850.0,2645,Reuilly-Sauvigny,2,,,026450000B1964,,,,,,,,,,,,,0,,,,,BT,taillis simples,,,457.0,3.571742,49.047781
557,2017-22499,2017-05-16,1,Vente,80000.0,1.0,,RTE DE MEZY MOULINS,37,2400.0,2524,Mont-Saint-Père,2,,,025240000B1852,,,,,,,,,,,,,0,1.0,Maison,80.0,4.0,S,sols,,,1145.0,3.495442,49.074675
558,2017-22539,2017-05-15,1,Vente,147030.16,,,LE BOIS DE BARADA,B008,2130.0,2712,Sergy,2,,,027120000B0176,,,,,,,,,,,,,0,,,,,BT,taillis simples,,,3828.0,3.537485,49.157139
559,2017-22581,2017-05-29,1,Vente,195000.0,,,ARGENTOLE,B002,2850.0,2164,Le Charmel,2,,,02164000ZD0174,,,,,,,,,,,,,0,,,,,P,prés,,,7740.0,3.549272,49.100978
560,2017-22617,2017-06-09,1,Echange,32500.0,,,LES FAVERIAUX,B043,2400.0,2166,Chartèves,2,,,021660000B0170,,,,,,,,,,,,,0,,,,,T,terres,,,614.0,3.505872,49.084779
561,2017-22642,2017-05-26,1,Vente,198000.0,,,LES MONSETS,B374,2400.0,2290,Essômes-sur-Marne,2,,,02290000YS0094,,,,,,,,,,,,,0,,,,,J,jardins,,,650.0,3.376181,49.024597
562,2017-22685,2017-06-20,1,Vente,215920.0,14.0,,LE PETIT BALLOIS,B190,2400.0,2540,Nesles-la-Montagne,2,,,025400000B0583,,,,,,,,,,,,,0,1.0,Maison,148.0,5.0,S,sols,,,1089.0,3.443232,49.013149
563,2017-22723,2017-07-06,1,Vente,175000.0,23.0,,RUE DU CHATEAU,50,2130.0,2305,Fère-en-Tardenois,2,,,02305000AB0006,,,,,,,,,,,,,0,3.0,Dépendance,,0.0,S,sols,,,1256.0,3.514612,49.206095
564,2017-22751,2017-06-15,1,Vente,290000.0,9.0,,RUE SAINT MARTIN,1070,2400.0,2168,Château-Thierry,2,,,02168000AV0124,,,,,,,,,,,,,0,2.0,Appartement,18.0,2.0,S,sols,,,248.0,3.396517,49.045459
565,2017-22788,2017-07-13,1,Vente,173000.0,16.0,,GR GRANDE RUE,27,2540.0,2798,Viels-Maisons,2,,,027980000F0120,,,,,,,,,,,,,0,2.0,Appartement,100.0,3.0,S,sols,,,640.0,3.396877,48.896406
566,2017-22838,2017-07-12,1,Vente,90400.0,,,RUE DE LA GOUTTE D'OR,90,2130.0,2305,Fère-en-Tardenois,2,,,02305000AD0151,,,,,,,,,,,,,0,,,,,S,sols,,,446.0,3.518516,49.19565
567,2017-22875,2017-07-19,1,Vente,244815.0,,,LE COLLET DE ROUVRAY,B084,2850.0,2748,Trélou-sur-Marne,2,,,027480000A3604,,,,,,,,,,,,,0,,,,,VI,vignes,VAOC,Vins d'appellation d'origine contrôlée,158.0,3.612471,49.089947
568,2017-22926,2017-08-18,1,Vente,1203.75,,,LES BLUTRETS,B007,2400.0,2187,Chierry,2,,,02187000AH0320,,,,,,,,,,,,,0,,,,,T,terres,,,791.0,3.429956,49.0342
569,2017-22963,2017-08-11,1,Vente,195000.0,,,LES GOULOTTES,B045,2400.0,2347,Gland,2,,,02347000AA0100,,,,,,,,,,,,,0,,,,,J,jardins,,,615.0,3.461673,49.046187
570,2017-22997,2017-09-01,1,Vente,211310.0,,,COUPRU VILLAGE,B015,2310.0,2221,Coupru,2,,,022210000A0153,,,,,,,,,,,,,0,,,,,S,sols,,,45.0,3.271898,49.030431
571,2017-23043,2017-09-06,1,Vente,215000.0,,,LE VAL DE LA CAVE DU BOUC,B196,2310.0,2163,Charly-sur-Marne,2,,,02163000AC0037,,,,,,,,,,,,,0,,,,,S,sols,,,420.0,3.28408,48.980322
572,2017-23074,2017-09-29,1,Vente,143000.0,2.0,,RUE DU PONT,45,2130.0,2127,Bruyères-sur-Fère,2,,,021270000A0548,,,,,,,,,,,,,0,,,,,J,jardins,,,878.0,3.461134,49.198648
573,2017-23101,2017-09-25,1,Vente,50000.0,,,LES CAVES,B006,2400.0,2099,Bonnesvalyn,2,,,020990000B0353,,,,,,,,,,,,,0,,,,,BT,taillis simples,,,302.0,3.326237,49.129061
